[{"location":"220 West Houston Street","address":"220 West Houston Street","type":"Candlelight, Open, Topic Discussion","geometries":null,"name":"Midnite","link":"http://meetings.nyintergroup.org/meetings/midnite-2?d=any&v=list","time":"0-02:00","region":"Greenwich Village","lat":40.7287153,"long":-74.004578,"formatted_address":"220 W Houston St, New York, NY 10014, USA"},{"location":"Holy Name Church","address":"207 West 96th Street","type":"Literature, Open, Topic Discussion","geometries":null,"name":"First Things First","link":"http://meetings.nyintergroup.org/meetings/first-things-first?d=any&v=list","time":"0-06:00","region":"Upper West Side","lat":40.7944661,"long":-73.9706389,"formatted_address":"207 W 96th St, New York, NY 10025, USA"},{"location":"St John's Lutheran Church","address":"75 East Olive Street","type":"Closed, Literature","geometries":null,"name":"Long Beach Early Risers","link":"http://meetings.nyintergroup.org/meetings/long-beach-early-risers?d=any&v=list","time":"0-06:30","region":"Nassau County","lat":40.58694819999999,"long":-73.6616403,"formatted_address":"75 E Olive St, Long Beach, NY 11561, USA"},{"location":"St John the Evangelist Roman Catholic Church","address":"25 Ocean Avenue","type":"Big Book","geometries":null,"name":"Center Moriches Sunrise Sobriety","link":"http://meetings.nyintergroup.org/meetings/center-moriches-sunrise-sobriety?d=any&v=list","time":"0-06:45","region":"Suffolk County","lat":40.67216570000001,"long":-73.4146903,"formatted_address":"25 Ocean Ave, Amityville, NY 11701, USA"},{"location":"Patterson Baptist Church","address":"595 New York 311","type":"Open, Wheelchair Accessible","geometries":null,"name":"Patterson","link":"http://meetings.nyintergroup.org/meetings/patterson?d=any&v=list","time":"0-07:00","region":"Putnam and Dutchess Counties","lat":41.4871066,"long":-73.62685479999999,"formatted_address":"595 NY-311, Patterson, NY 12563, USA"},{"location":"St Andrew's Episcopal Church","address":"26 Prospect Street","type":"Open, Topic Discussion, Wheelchair Accessible","geometries":null,"name":"Brewster Earlier Birds","link":"http://meetings.nyintergroup.org/meetings/brewster-earlier-birds?d=any&v=list","time":"0-07:00","region":"Putnam and Dutchess Counties","lat":41.4983972,"long":-73.9580525,"formatted_address":"26 Prospect St, Beacon, NY 12508, USA"},{"location":"St Patrick's Church","address":"188 Church Place","type":"Closed, Wheelchair Accessible","geometries":null,"name":"Yorktown Heights Early Birds","link":"http://meetings.nyintergroup.org/meetings/yorktown-heights-early-birds?d=any&v=list","time":"0-07:00","region":"Yorktown Heights","lat":41.27071369999999,"long":-73.77740059999999,"formatted_address":"188 Church Pl, Yorktown Heights, NY 10598, USA"},{"location":"411 East 12th Street","address":"411 East 12th Street","type":"Step Meeting","geometries":null,"name":"The 12th Street Workshop","link":"http://meetings.nyintergroup.org/meetings/the-12th-street-workshop?d=any&v=list","time":"0-07:30","region":"East Village","lat":40.7298724,"long":-73.9827759,"formatted_address":"411 E 12th St, New York, NY 10009, USA"},{"location":"50 Perry Street","address":"50 Perry Street","type":"Open, Topic Discussion","geometries":null,"name":"Perry Street Workshop","link":"http://meetings.nyintergroup.org/meetings/perry-street-workshop?d=any&v=list","time":"0-07:30","region":"Greenwich Village","lat":40.7355145,"long":-74.0031001,"formatted_address":"50 Perry St, New York, NY 10014, USA"},{"location":"Hazelden Tribeca","address":"283 West Broadway","type":"Open, Topic Discussion, Wheelchair Accessible","geometries":null,"name":"Room for Improvement (:II)","link":"http://meetings.nyintergroup.org/meetings/room-for-improvement-ii-2?d=any&v=list","time":"0-07:30","region":"Tribeca","lat":40.7208017,"long":-74.0048389,"formatted_address":"283 W Broadway, New York, NY 10013, USA"},{"location":"Mustard Seed","address":"122 East 37th Street","type":"Closed, Meditation","geometries":null,"name":"Mustard Seed","link":"http://meetings.nyintergroup.org/meetings/mustard-seed?d=any&v=list","time":"0-07:30","region":"Kip's Bay/Murray Hill","lat":40.748323,"long":-73.97884499999999,"formatted_address":"122 E 37th St, New York, NY 10016, USA"},{"location":"National Museum","address":"190 Fordham Street","type":"Open, Wheelchair Accessible","geometries":null,"name":"Orchard Beach Group","link":"http://meetings.nyintergroup.org/meetings/orchard-beach-group?d=any&v=list","time":"0-07:30","region":"City Island","lat":40.8470889,"long":-73.7843989,"formatted_address":"190 Fordham St, Bronx, NY 10464, USA"},{"location":"Penataquit Methodist Church","address":"2nd Avenue","type":"Beginner","geometries":null,"name":"Bayshore Sunday Morning Sobriety","link":"http://meetings.nyintergroup.org/meetings/bayshore-sunday-morning-sobriety?d=any&v=list","time":"0-07:30","region":"Suffolk County","lat":40.7653022,"long":-73.9609256,"formatted_address":"2nd Ave, New York, NY, USA"},{"location":"St Paul's Parish Hall","address":"199 Carroll Street","type":"Closed","geometries":null,"name":"Brooklyn Exchange","link":"http://meetings.nyintergroup.org/meetings/brooklyn-exchange?d=any&v=list","time":"0-07:30","region":"Brooklyn Heights","lat":40.6817055,"long":-73.99809549999999,"formatted_address":"199 Carroll St, Brooklyn, NY 11231, USA"},{"location":"Zion Evangelical Lutheran Church","address":"125 Henry Street","type":"Beginner","geometries":null,"name":"Sunrise","link":"http://meetings.nyintergroup.org/meetings/sunrise?d=any&v=list","time":"0-07:30","region":"Brooklyn Heights","lat":40.6967733,"long":-73.9930667,"formatted_address":"125 Henry St, Brooklyn, NY 11201, USA"},{"location":"St Margaret's Residence","address":"49 Fulton Street","type":"Open, Topic Discussion, Wheelchair Accessible","geometries":null,"name":"Exchange Views @ St Margaret's House","link":"http://meetings.nyintergroup.org/meetings/exchange-views-7?d=any&v=list","time":"0-07:45","region":"Bowling Green/City Hall","lat":40.7045672,"long":-74.01379899999999,"formatted_address":"Bowling Green, New York, NY 10004, USA"},{"location":"Alanon House","address":"303 West 42nd Street","type":"Step Meeting","geometries":null,"name":"A New Freedom","link":"http://meetings.nyintergroup.org/meetings/a-new-freedom?d=any&v=list","time":"0-08:00","region":"Hell's Kitchen","lat":40.7576553,"long":-73.9899274,"formatted_address":"303 W 42nd St, New York, NY 10036, USA"},{"location":"Asbury Methodist Church","address":"167 Scarsdale Road","type":"Closed","geometries":null,"name":"Bronxville Asbury","link":"http://meetings.nyintergroup.org/meetings/bronxville-asbury?d=any&v=list","time":"0-08:00","region":"Tuckahoe","lat":40.9570747,"long":-73.8312565,"formatted_address":"167 Scarsdale Rd, Tuckahoe, NY 10707, USA"},{"location":"Greenpoint Reformed Church","address":"136 Milton Street","type":"Big Book","geometries":null,"name":"Sober Sunday","link":"http://meetings.nyintergroup.org/meetings/sober-sunday?d=any&v=list","time":"0-08:00","region":"Greenpoint","lat":40.7291861,"long":-73.9549699,"formatted_address":"136 Milton St, Brooklyn, NY 11222, USA"},{"location":"Immanuel Lutheran Church","address":"1296 Lexington Avenue","type":"Open, Topic Discussion","geometries":null,"name":"Chapter Five","link":"http://meetings.nyintergroup.org/meetings/chapter-five?d=any&v=list","time":"0-08:00","region":"Yorkville / Carnegie Hill","lat":40.780699,"long":-73.954995,"formatted_address":"1296 Lexington Ave, New York, NY 10128, USA"},{"location":"Munger Cottage","address":"395 Hudson Street","type":"Closed, Wheelchair Accessible","geometries":null,"name":"Cornwall Canterbury Tales","link":"http://meetings.nyintergroup.org/meetings/cornwall-canterbury-tales?d=any&v=list","time":"0-08:00","region":"Orange County","lat":40.7291784,"long":-74.0076313,"formatted_address":"395 Hudson St, New York, NY 10014, USA"},{"location":"Our Lady of Lebanon Maronite Cathedral","address":"111 Remsen St","type":"Big Book","geometries":null,"name":"Great Fact Big Book Study Group of Brooklyn","link":"http://meetings.nyintergroup.org/meetings/great-fact-big-book-study-group-of-brooklyn?d=any&v=list","time":"0-08:00","region":"Brooklyn Heights","lat":40.6940508,"long":-73.994308,"formatted_address":"111 Remsen St, Brooklyn, NY 11201, USA"},{"location":"St Monica's Church","address":"413 East 79th Street","type":"Closed","geometries":null,"name":"Seventy-Ninth Street Workshop","link":"http://meetings.nyintergroup.org/meetings/seventy-ninth-street-workshop?d=any&v=list","time":"0-08:00","region":"Upper East Side","lat":40.7722008,"long":-73.9517118,"formatted_address":"413 E 79th St, New York, NY 10075, USA"},{"location":"Union Free Church","address":"Ocean Breeze Walk","type":"Closed, Wheelchair Accessible","geometries":null,"name":"Ocean Beach 1st Step Workshop","link":"http://meetings.nyintergroup.org/meetings/ocean-beach-1st-step-workshop-10?d=any&v=list","time":"0-08:00","region":"Suffolk County","lat":40.6473872,"long":-73.1550999,"formatted_address":"Ocean Breeze Walk, Ocean Beach, NY 11770, USA"},{"location":"West Side YMCA","address":"5 West 63rd Street","type":"Closed, Wheelchair Accessible","geometries":null,"name":"Fast Break Weekend","link":"http://meetings.nyintergroup.org/meetings/fast-break-weekend?d=any&v=list","time":"0-08:00","region":"Upper West Side","lat":40.7709272,"long":-73.98057589999999,"formatted_address":"5 W 63rd St, New York, NY 10023, USA"},{"location":"Church of the Mediator","address":"260 West 231st Street","type":"Big Book, Wheelchair Accessible","geometries":null,"name":"Marble Hill Kingsbridge","link":"http://meetings.nyintergroup.org/meetings/marble-hill-kingsbridge-5?d=any&v=list","time":"0-08:30","region":"Kingsbridge","lat":40.87976279999999,"long":-73.9073882,"formatted_address":"260 W 231st St, Bronx, NY 10463, USA"},{"location":"103 Quincy Street","address":"103 Quincy Street","type":"Beginner","geometries":null,"name":"Feelings","link":"http://meetings.nyintergroup.org/meetings/feelings?d=any&v=list","time":"0-09:00","region":"Adelphi Crown Heights","lat":40.6681032,"long":-73.9447994,"formatted_address":"Crown Heights, Brooklyn, NY, USA"},{"location":"82 East Main Street","address":"82 East Main Street","type":"Closed","geometries":null,"name":"Patchogue Grupo Camino de Sobriedad","link":"http://meetings.nyintergroup.org/meetings/patchogue-grupo-camino-de-sobriedad?d=any&v=list","time":"0-09:00","region":"Suffolk County","lat":40.722759,"long":-73.245632,"formatted_address":"82 E Main St, Bay Shore, NY 11706, USA"},{"location":"Adas Israel Synagogue","address":"Atlantic Avenue","type":"Closed","geometries":null,"name":"Sag Harbor Sober Sunday","link":"http://meetings.nyintergroup.org/meetings/sag-harbor-sober-sunday?d=any&v=list","time":"0-09:00","region":"Suffolk County","lat":40.9739985,"long":-72.12821339999999,"formatted_address":"Atlantic Ave, Amagansett, NY 11930, USA"},{"location":"Gustavus Adolphus Lutheran Church","address":"155 East 22nd Street","type":"Closed, Meditation","geometries":null,"name":"Sunday Morning Meditation","link":"http://meetings.nyintergroup.org/meetings/sunday-morning-meditation?d=any&v=list","time":"0-09:00","region":"Gramercy Park","lat":40.7385571,"long":-73.9840372,"formatted_address":"155 E 22nd St, New York, NY 10010, USA"},{"location":"Jan Hus Church","address":"351 East 74th Street","type":"Closed, Meditation, Step Meeting","geometries":null,"name":"Eleventh Step at Jan Hus","link":"http://meetings.nyintergroup.org/meetings/eleventh-step-at-jan-hus?d=any&v=list","time":"0-09:00","region":"Upper East Side","lat":40.7695575,"long":-73.9555091,"formatted_address":"351 E 74th St, New York, NY 10021, USA"},{"location":"Knights of Columbus Hall","address":"163-16 Pidgeon Meadow Road","type":"Beginner","geometries":null,"name":"Hardheads","link":"http://meetings.nyintergroup.org/meetings/hardheads?d=any&v=list","time":"0-09:00","region":"Flushing","lat":40.7510523,"long":-73.8036822,"formatted_address":"163-16 Pidgeon Meadow Rd, Flushing, NY 11358, USA"},{"location":"Monsignor Farrell High School","address":"2900 Amboy Road","type":"Closed","geometries":null,"name":"Sunday Morning Early Birds","link":"http://meetings.nyintergroup.org/meetings/sunday-morning-early-birds?d=any&v=list","time":"0-09:00","region":"New Dorp, Oakwood, Oakwood Heights","lat":40.5673492,"long":-74.1254917,"formatted_address":"2900 Amboy Rd, Staten Island, NY 10306, USA"},{"location":"Mt Loretto Gymnasium","address":"6581 Hylan Boulevard","type":"Beginner, Wheelchair Accessible","geometries":null,"name":"First Drink","link":"http://meetings.nyintergroup.org/meetings/first-drink?d=any&v=list","time":"0-09:00","region":"Prince's Bay","lat":40.51030919999999,"long":-74.21976839999999,"formatted_address":"6581 Hylan Blvd, Staten Island, NY 10309, USA"},{"location":"St John's Boys Home","address":"150 Beach 110th Street","type":"Big Book, Wheelchair Accessible","geometries":null,"name":"Rockaway Big Book Group","link":"http://meetings.nyintergroup.org/meetings/rockaway-big-book-group?d=any&v=list","time":"0-09:00","region":"Rockaway Park","lat":40.5804072,"long":-73.8315348,"formatted_address":"150 Beach 110th St, Rockaway Park, NY 11694, USA"},{"location":"St Mary Gate of Heaven Church","address":"104-06 101st Avenue","type":"Step Meeting, Wheelchair Accessible","geometries":null,"name":"Stick with the Winners","link":"http://meetings.nyintergroup.org/meetings/stick-with-the-winners?d=any&v=list","time":"0-09:00","region":"Ozone Park","lat":40.6859762,"long":-73.8386233,"formatted_address":"104-06 101st Ave, Ozone Park, NY 11416, USA"},{"location":"Immaculate Conception School","address":"21-47 29th Street","type":"Open, Topic Discussion","geometries":null,"name":"Morning Medicine","link":"http://meetings.nyintergroup.org/meetings/morning-medicine?d=any&v=list","time":"0-09:30","region":"Astoria / Steinway","lat":40.7776155,"long":-73.9107167,"formatted_address":"21-47 29th St, Astoria, NY 11105, USA"},{"location":"Life Recovery Center","address":"1285 Fulton Avenue","type":"Step Meeting, Wheelchair Accessible","geometries":null,"name":"Sunday Morning","link":"http://meetings.nyintergroup.org/meetings/sunday-morning-2?d=any&v=list","time":"0-09:30","region":"Morrisania","lat":40.832127,"long":-73.903936,"formatted_address":"1285 Fulton Ave, Bronx, NY 10456, USA"},{"location":"Mount Alverno Center","address":"20 Grand Street","type":"Closed, Wheelchair Accessible","geometries":null,"name":"Warwick Sunday Serenity","link":"http://meetings.nyintergroup.org/meetings/warwick-sunday-serenity?d=any&v=list","time":"0-09:30","region":"Orange County","lat":41.49965890000001,"long":-74.0097866,"formatted_address":"20 Grand St, Newburgh, NY 12550, USA"},{"location":"North Woodmere Park Administration Building","address":"750 Hungry Harbor Road","type":"Beginner, Wheelchair Accessible","geometries":null,"name":"North Woodmere Gratitude","link":"http://meetings.nyintergroup.org/meetings/north-woodmere-gratitude?d=any&v=list","time":"0-09:30","region":"Nassau County","lat":40.643477,"long":-73.7356154,"formatted_address":"750 Hungry Harbor Rd, Valley Stream, NY 11581, USA"},{"location":"Safe Haven","address":"255 Avenue W","type":"Beginner","geometries":null,"name":"Safe Haven","link":"http://meetings.nyintergroup.org/meetings/safe-haven?d=any&v=list","time":"0-09:30","region":"Gravesend","lat":40.5925787,"long":-73.973537,"formatted_address":"255 Avenue W, Brooklyn, NY 11223, USA"},{"location":"Saint Mark's Episcopal Church","address":"33-50 82nd Street","type":"Big Book, Wheelchair Accessible","geometries":null,"name":"Sunday 103","link":"http://meetings.nyintergroup.org/meetings/sunday-103?d=any&v=list","time":"0-09:30","region":"Jackson Heights","lat":40.7539878,"long":-73.8854907,"formatted_address":"33-50 82nd St, Jackson Heights, NY 11372, USA"},{"location":"St Margaret Church","address":"66-10 79th Place","type":"Open, Topic Discussion","geometries":null,"name":"Lighthouse Rego Park","link":"http://meetings.nyintergroup.org/meetings/lighthouse-rego-park-2?d=any&v=list","time":"0-09:30","region":"Middle Village","lat":40.715547,"long":-73.873325,"formatted_address":"66-10 79th Pl, Flushing, NY 11379, USA"},{"location":"Upper Manhattan Mental Health Center","address":"1727 Amsterdam Avenue","type":"Beginner, Wheelchair Accessible","geometries":null,"name":"Promises Two for One","link":"http://meetings.nyintergroup.org/meetings/promises-two-for-one?d=any&v=list","time":"0-09:30","region":"West Harlem","lat":40.8254215,"long":-73.946911,"formatted_address":"1727 Amsterdam Ave, New York, NY 10031, USA"},{"location":"Young Israel of Scarsdale","address":"1313 Weaver Street","type":"Closed","geometries":null,"name":"Scarsdale Road to Recovery","link":"http://meetings.nyintergroup.org/meetings/scarsdale-road-to-recovery?d=any&v=list","time":"0-09:30","region":"Scarsdale","lat":40.9763956,"long":-73.7753611,"formatted_address":"1313 Weaver St, Scarsdale, NY 10583, USA"},{"location":"14th Street Y","address":"344 East 14th Street","type":"Step Meeting, Wheelchair Accessible","geometries":null,"name":"Weekenders","link":"http://meetings.nyintergroup.org/meetings/weekenders?d=any&v=list","time":"0-10:00","region":"East Village","lat":40.7312884,"long":-73.9832952,"formatted_address":"344 E 14th St, New York, NY 10003, USA"},{"location":"38-21 99th Street","address":"38-21 99th Street","type":"Open, Spanish","geometries":null,"name":"Grupo Honestidad","link":"http://meetings.nyintergroup.org/meetings/grupo-honestidad?d=any&v=list","time":"0-10:00","region":"Corona","lat":40.749958,"long":-73.866522,"formatted_address":"38-21 99th St, Flushing, NY 11368, USA"},{"location":"Holy Rood Church","address":"715 West 179th Street","type":"Step Meeting, Wheelchair Accessible","geometries":null,"name":"Bridge to Sobriety (:II)","link":"http://meetings.nyintergroup.org/meetings/bridge-to-sobriety-ii?d=any&v=list","time":"0-10:00","region":"Washington Heights","lat":40.849394,"long":-73.93841119999999,"formatted_address":"715 W 179th St, New York, NY 10033, USA"},{"location":"Irish Community Centre","address":"990 McLean Avenue","type":"Open, Wheelchair Accessible","geometries":null,"name":"Yonkers the Better Way","link":"http://meetings.nyintergroup.org/meetings/yonkers-the-better-way?d=any&v=list","time":"0-10:00","region":"Yonkers","lat":40.9030231,"long":-73.8647623,"formatted_address":"990 McLean Ave, Yonkers, NY 10704, USA"},{"location":"74 East 17th Street","address":"74 East 17th Street","type":"Closed, Spanish","geometries":null,"name":"Grupo Cuzcatlan","link":"http://meetings.nyintergroup.org/meetings/grupo-cuzcatlan?d=any&v=list","time":"0-12:00","region":"Flatbush","lat":40.6491978,"long":-73.9642185,"formatted_address":"74 E 17th St, Brooklyn, NY 11226, USA"},{"location":"St Patrick's Church","address":"9511 4th Avenue","type":"Step Meeting","geometries":null,"name":"Park Slope Caton","link":"http://meetings.nyintergroup.org/meetings/park-slope-caton?d=any&v=list","time":"0-11:00","region":"Bay Ridge","lat":40.6153886,"long":-74.03144739999999,"formatted_address":"9511 4th Ave, Brooklyn, NY 11209, USA"},{"location":"St Jude's School","address":"431 West 204th Street","type":"Open","geometries":null,"name":"Dyckman","link":"http://meetings.nyintergroup.org/meetings/dyckman?d=any&v=list","time":"0-12:00","region":"Inwood","lat":40.8621364,"long":-73.9189224,"formatted_address":"431 W 204th St, New York, NY 10034, USA"},{"location":"Senior Citizens Center","address":"126 Springs Fireplace Road","type":"Step Meeting, Wheelchair Accessible","geometries":null,"name":"East Hampton Sunday Step","link":"http://meetings.nyintergroup.org/meetings/east-hampton-sunday-step?d=any&v=list","time":"0-11:30","region":"Suffolk County","lat":40.9793668,"long":-72.1755349,"formatted_address":"126 Springs Fireplace Rd, East Hampton, NY 11937, USA"},{"location":"Chabad Heights Community Center","address":"664 Sterling Place","type":"Beginner","geometries":null,"name":"No Serenity 'til Brooklyn-Sunday","link":"http://meetings.nyintergroup.org/meetings/no-serenity-til-brooklyn-sunday?d=any&v=list","time":"0-11:00","region":"Brovoort","lat":40.9540102,"long":-73.71460379999999,"formatted_address":"Brevoort Ln, Rye, NY 10580, USA"},{"location":"Lesbian, Gay, Bi-Sexual & Transgender Community Center","address":"208 West 13th Street","type":"Open, Sign Language, Wheelchair Accessible","geometries":null,"name":"High Noon","link":"http://meetings.nyintergroup.org/meetings/high-noon?d=any&v=list","time":"0-12:00","region":"Greenwich Village","lat":40.7380161,"long":-74.0011104,"formatted_address":"208 W 13th St, New York, NY 10011, USA"},{"location":"Wayside Baptist Manor","address":"1726 Broadway","type":"Open, Topic Discussion","geometries":null,"name":"Bedford","link":"http://meetings.nyintergroup.org/meetings/bedford?d=any&v=list","time":"0-11:00","region":"East New York","lat":40.7646759,"long":-73.9822623,"formatted_address":"1726 Broadway, New York, NY 10019, USA"},{"location":"Community Room","address":"1431 College Avenue","type":"Beginner, Literature, Wheelchair Accessible","geometries":null,"name":"Recover to Discover","link":"http://meetings.nyintergroup.org/meetings/recover-to-discover?d=any&v=list","time":"0-10:30","region":"Morrisania","lat":40.8386455,"long":-73.9100667,"formatted_address":"1431 College Ave, Bronx, NY 10456, USA"},{"location":"St Patrick's School","address":"3560 Richmond Road","type":"Step Meeting, Wheelchair Accessible","geometries":null,"name":"Conscious Contact","link":"http://meetings.nyintergroup.org/meetings/conscious-contact?d=any&v=list","time":"0-11:00","region":"New Dorp, Oakwood, Oakwood Heights","lat":40.5722505,"long":-74.1394978,"formatted_address":"3560 Richmond Rd, Staten Island, NY 10306, USA"},{"location":"46th Street Club House","address":"252 West 46th Street","type":"Beginner, Literature","geometries":null,"name":"Beginners","link":"http://meetings.nyintergroup.org/meetings/beginners-14?d=any&v=list","time":"0-13:30","region":"Hell's Kitchen","lat":40.7593263,"long":-73.98727389999999,"formatted_address":"252 W 46th St, New York, NY 10036, USA"},{"location":"Our Lady of Good Council School","address":"42 Austin Place","type":"Closed","geometries":null,"name":"Meeting at the Park","link":"http://meetings.nyintergroup.org/meetings/meeting-at-the-park?d=any&v=list","time":"0-14:00","region":"Stapleton","lat":40.6313324,"long":-74.0863615,"formatted_address":"42 Austin Pl, Staten Island, NY 10304, USA"},{"location":"St Peter's Episcopal Church","address":"Westchester Avenue","type":"Open, Spanish","geometries":null,"name":"Port Chester Grupo En Busca de la Verdad","link":"http://meetings.nyintergroup.org/meetings/port-chester-grupo-en-busca-de-la-verdad?d=any&v=list","time":"0-14:30","region":"Port Chester","lat":41.0048823,"long":-73.6782774,"formatted_address":"Westchester Ave, Port Chester, NY 10573, USA"},{"location":"St Peters St Dennis Church","address":"91 Ludlow Street","type":"Beginner","geometries":null,"name":"Yonkers Thanksgiving Group","link":"http://meetings.nyintergroup.org/meetings/yonkers-thanksgiving-group?d=any&v=list","time":"0-11:00","region":"Yonkers","lat":40.9240911,"long":-73.9003444,"formatted_address":"91 Ludlow St, Yonkers, NY 10705, USA"},{"location":"First Presbyterian Church of Jamaica","address":"89-60 164th Street","type":"Open, Topic Discussion","geometries":null,"name":"Open Mind-Open Discussion","link":"http://meetings.nyintergroup.org/meetings/open-mind-open-discussion-2?d=any&v=list","time":"0-15:00","region":"Jamaica","lat":40.7057859,"long":-73.7966539,"formatted_address":"89-60 164th St, Jamaica, NY 11432, USA"},{"location":"Theatre 80","address":"80 Saint Marks Place","type":"Big Book","geometries":null,"name":"Living Now","link":"http://meetings.nyintergroup.org/meetings/living-now-3?d=any&v=list","time":"0-14:00","region":"East Village","lat":40.727506,"long":-73.98583909999999,"formatted_address":"80 St Marks Pl, New York, NY 10003, USA"},{"location":"Our Lady of Mount Carmel Church","address":"275 North 8th Street","type":"Closed, Men","geometries":null,"name":"Drink and Die Men","link":"http://meetings.nyintergroup.org/meetings/drink-and-die?d=any&v=list","time":"0-14:00","region":"Williamsburg","lat":40.7161322,"long":-73.952581,"formatted_address":"275 N 8th St, Brooklyn, NY 11211, USA"},{"location":"Church of the Holy Redeemer","address":"2424 Linden Boulevard","type":"Closed","geometries":null,"name":"New Lots-Linwood","link":"http://meetings.nyintergroup.org/meetings/new-lots-linwood?d=any&v=list","time":"0-14:00","region":"New Lots","lat":40.7127837,"long":-74.0059413,"formatted_address":"New York, NY, USA"},{"location":"46th Street Club House","address":"252 West 46th Street","type":"Beginner","geometries":null,"name":"Beginners","link":"http://meetings.nyintergroup.org/meetings/beginners-7?d=any&v=list","time":"0-14:45","region":"Hell's Kitchen","lat":40.7593263,"long":-73.98727389999999,"formatted_address":"252 W 46th St, New York, NY 10036, USA"},{"location":"Arden Heights Jewish Center","address":"1766 Arthur Kill Road","type":"Closed, Wheelchair Accessible","geometries":null,"name":"Get Free","link":"http://meetings.nyintergroup.org/meetings/get-free?d=any&v=list","time":"0-13:00","region":"Eltingville","lat":40.5589721,"long":-74.19648289999999,"formatted_address":"1766 Arthur Kill Rd, Staten Island, NY 10312, USA"},{"location":"Harlem Hospital King Pavilion","address":"506 Lenox Avenue","type":"Beginner, Wheelchair Accessible","geometries":null,"name":"Steps 3 and 11","link":"http://meetings.nyintergroup.org/meetings/steps-3-and-11?d=any&v=list","time":"0-14:00","region":"West Harlem","lat":40.8141351,"long":-73.9397616,"formatted_address":"506 Lenox Ave, New York, NY 10037, USA"},{"location":"Church Santa Rosa de Lima","address":"502 West 165th Street","type":"Open, Spanish","geometries":null,"name":"Grupo Recuperacion","link":"http://meetings.nyintergroup.org/meetings/grupo-recuperacion?d=any&v=list","time":"0-14:30","region":"Washington Heights","lat":40.8380556,"long":-73.93891789999999,"formatted_address":"502 W 165th St, New York, NY 10032, USA"},{"location":"Grace Church","address":"254 Hicks Street","type":"Closed","geometries":null,"name":"Spirituality in Recovery","link":"http://meetings.nyintergroup.org/meetings/spirituality-in-recovery?d=any&v=list","time":"0-13:30","region":"Brooklyn Heights","lat":40.6939159,"long":-73.9968659,"formatted_address":"254 Hicks St, Brooklyn, NY 11201, USA"},{"location":"Larchmont Temple-Blum Building","address":"24 Willow Avenue","type":"Closed, Meditation","geometries":null,"name":"Larchmont (:III)","link":"http://meetings.nyintergroup.org/meetings/larchmont-iii-2?d=any&v=list","time":"0-15:00","region":"Larchmont","lat":40.9246338,"long":-73.74846509999999,"formatted_address":"24 Willow Ave, Larchmont, NY 10538, USA"},{"location":"Clubhouse","address":"367 20th Street","type":"Closed, Women","geometries":null,"name":"Greenwood Women","link":"http://meetings.nyintergroup.org/meetings/greenwood-2?d=any&v=list","time":"0-13:00","region":"Park Slope","lat":40.6594712,"long":-73.98854419999999,"formatted_address":"367 20th St, Brooklyn, NY 11215, USA"},{"location":"Mt Vernon Civic Center","address":"43 Gramatan Avenue","type":"Closed","geometries":null,"name":"Mt Vernon Serenidade En Mt Vernon","link":"http://meetings.nyintergroup.org/meetings/mt-vernon-serenidade-en-mt-vernon?d=any&v=list","time":"0-14:00","region":"Mt. Vernon","lat":40.9130016,"long":-73.8369949,"formatted_address":"43 Gramatan Ave, Mt Vernon, NY 10550, USA"},{"location":"913 Broadway","address":"913 Broadway","type":"Closed, Spanish","geometries":null,"name":"Grupo Humilidad","link":"http://meetings.nyintergroup.org/meetings/grupo-humilidad-5?d=any&v=list","time":"0-15:00","region":"Metropolitan","lat":40.7396272,"long":-73.989859,"formatted_address":"913 Broadway, New York, NY 10010, USA"},{"location":"2723 Atlantic Avenue","address":"2723 Atlantic Avenue","type":"Open, Spanish, Wheelchair Accessible","geometries":null,"name":"Grupo El Salvador","link":"http://meetings.nyintergroup.org/meetings/grupo-el-salvador?d=any&v=list","time":"0-15:00","region":"East New York","lat":40.676322,"long":-73.893841,"formatted_address":"2723 Atlantic Ave, Brooklyn, NY 11207, USA"},{"location":"First Presbyterian Church of Jamaica","address":"89-60 164th Street","type":"Step Meeting","geometries":null,"name":"Open Mind-Open Discussion","link":"http://meetings.nyintergroup.org/meetings/open-mind-open-discussion?d=any&v=list","time":"0-13:45","region":"Jamaica","lat":40.7057859,"long":-73.7966539,"formatted_address":"89-60 164th St, Jamaica, NY 11432, USA"},{"location":"Memorial United Methodist Church","address":"250 Bryant Avenue","type":"Closed, Wheelchair Accessible","geometries":null,"name":"White Plains Westchester Sponsor House","link":"http://meetings.nyintergroup.org/meetings/white-plains-westchester-sponsor-house?d=any&v=list","time":"0-14:30","region":"White Plains","lat":41.0219087,"long":-73.74686109999999,"formatted_address":"250 Bryant Ave, White Plains, NY 10605, USA"},{"location":"First Presbyterian Church","address":"199 North Columbus Avenue","type":"Step Meeting","geometries":null,"name":"Mt Vernon Sobriety Unlimited","link":"http://meetings.nyintergroup.org/meetings/mt-vernon-sobriety-unlimited?d=any&v=list","time":"0-15:00","region":"Mt. Vernon","lat":40.9180792,"long":-73.8245243,"formatted_address":"199 N Columbus Ave, Mt Vernon, NY 10553, USA"},{"location":"Ext Care Facility & Rehabilitation Center","address":"330 Community Drive","type":"Open, Topic Discussion, Wheelchair Accessible","geometries":null,"name":"Manhasset North Shore","link":"http://meetings.nyintergroup.org/meetings/manhasset-north-shore?d=any&v=list","time":"0-13:00","region":"Nassau County","lat":40.773229,"long":-73.7003462,"formatted_address":"330 Community Dr, Manhasset, NY 11030, USA"},{"location":"Our Lady of Assumption Parish Hall","address":"High Street","type":"Step Meeting","geometries":null,"name":"Bloomingburg Bottom of the Mountain","link":"http://meetings.nyintergroup.org/meetings/bloomingburg-bottom-of-the-mountain?d=any&v=list","time":"0-15:00","region":"Sullivan, Green, and Ulster Counties","lat":40.7127837,"long":-74.0059413,"formatted_address":"New York, NY, USA"},{"location":"913 Broadway","address":"913 Broadway","type":"Beginner, Spanish","geometries":null,"name":"Grupo Humilidad","link":"http://meetings.nyintergroup.org/meetings/grupo-humilidad?d=any&v=list","time":"0-14:00","region":"Metropolitan","lat":40.7396272,"long":-73.989859,"formatted_address":"913 Broadway, New York, NY 10010, USA"},{"location":"Helen Hayes Hospital Annex","address":"51-55 North Route 9W","type":"Step Meeting, Wheelchair Accessible","geometries":null,"name":"West Haverstraw New Horizons","link":"http://meetings.nyintergroup.org/meetings/west-haverstraw-new-horizons?d=any&v=list","time":"0-11:30","region":"Rockland County","lat":41.2143465,"long":-73.9886339,"formatted_address":"51-55 US-9W, West Haverstraw, NY 10993, USA"},{"location":"Jacobi Medical Center","address":"1400 Pelham Parkway South","type":"Closed, Wheelchair Accessible","geometries":null,"name":"New Hope","link":"http://meetings.nyintergroup.org/meetings/new-hope-2?d=any&v=list","time":"0-13:00","region":"Westchester","lat":40.8559089,"long":-73.84592970000001,"formatted_address":"1400 Pelham Pkwy S, Bronx, NY 10461, USA"},{"location":"Our Lady of Perpetual Help Church","address":"111-50 115th Street","type":"Open, Topic Discussion","geometries":null,"name":"Queens Sponsorship","link":"http://meetings.nyintergroup.org/meetings/queens-sponsorship?d=any&v=list","time":"0-15:00","region":"S. Ozone Park","lat":40.67814,"long":-73.82447499999999,"formatted_address":"111-50 115th St, Jamaica, NY 11420, USA"},{"location":"Riverside Church","address":"91 Claremont Avenue","type":"Open, Topic Discussion, Wheelchair Accessible","geometries":null,"name":"Primary Purpose","link":"http://meetings.nyintergroup.org/meetings/primary-purpose?d=any&v=list","time":"0-15:00","region":"West Harlem","lat":40.8118487,"long":-73.9631608,"formatted_address":"91 Claremont Ave, New York, NY 10027, USA"},{"location":"Hoboken University Hospital","address":"308 Willow Avenue","type":"Big Book, Wheelchair Accessible","geometries":null,"name":"Hoboken Sunday Big Book Study","link":"http://meetings.nyintergroup.org/meetings/hoboken-sunday-big-book-study?d=any&v=list","time":"0-11:30","region":"New Jersey","lat":40.741148,"long":-74.0341469,"formatted_address":"308 Willow Ave, Hoboken, NJ 07030, USA"},{"location":"Christ Church","address":"2 Milton Road","type":"Beginner, Literature","geometries":null,"name":"Rye Harrison (:I)","link":"http://meetings.nyintergroup.org/meetings/rye-harrison-i?d=any&v=list","time":"0-14:00","region":"Rye","lat":40.9795826,"long":-73.68288059999999,"formatted_address":"2 Milton Rd, Rye, NY 10580, USA"},{"location":"Sarah Lawrence College","address":"1 Mead Way","type":"Closed","geometries":null,"name":"Bronxville Miracles of Mental Health","link":"http://meetings.nyintergroup.org/meetings/bronxville-miracles-of-mental-health?d=any&v=list","time":"0-13:00","region":"Bronxville","lat":40.935443,"long":-73.8437546,"formatted_address":"Westlands, 1 Mead Way, Bronxville, NY 10708, USA"},{"location":"Saint James Episcopal Church","address":"7 Mountain View Drive","type":"Open, Topic Discussion","geometries":null,"name":"Callicoon Sunday Serenity","link":"http://meetings.nyintergroup.org/meetings/callicoon-sunday-serenity?d=any&v=list","time":"0-15:00","region":"Sullivan, Green, and Ulster Counties","lat":40.7127837,"long":-74.0059413,"formatted_address":"New York, NY, USA"},{"location":"Staten Island University Hospital South","address":"375 Seguine Avenue","type":"Open, Topic Discussion, Wheelchair Accessible","geometries":null,"name":"Inspiration","link":"http://meetings.nyintergroup.org/meetings/inspiration?d=any&v=list","time":"0-13:00","region":"Prince's Bay","lat":40.5169799,"long":-74.19614000000001,"formatted_address":"375 Seguine Ave, Staten Island, NY 10309, USA"},{"location":"St Augustine's Church","address":"292 Henry Street","type":"Open, Spanish, Wheelchair Accessible","geometries":null,"name":"Grupo Central","link":"http://meetings.nyintergroup.org/meetings/grupo-central?d=any&v=list","time":"0-15:00","region":"Bowery Lower East Side","lat":40.71371430000001,"long":-73.983033,"formatted_address":"292 Henry St, New York, NY 10002, USA"},{"location":"131 West 72nd Street","address":"131 West 72nd Street","type":"Closed","geometries":null,"name":"Sunday West","link":"http://meetings.nyintergroup.org/meetings/sunday-west?d=any&v=list","time":"0-12:00","region":"Upper West Side","lat":40.7781299,"long":-73.97975799999999,"formatted_address":"131 W 72nd St, New York, NY 10023, USA"},{"location":"St Clare of Assisi Church","address":"1025 Rhinelander Avenue","type":"Beginner","geometries":null,"name":"Morris Park","link":"http://meetings.nyintergroup.org/meetings/morris-park?d=any&v=list","time":"0-15:00","region":"Parkchester","lat":40.850983,"long":-73.85692499999999,"formatted_address":"1025 Rhinelander Ave, Bronx, NY 10461, USA"},{"location":"Veterans Residence","address":"22 East 119th Street","type":"Tradition, Wheelchair Accessible","geometries":null,"name":"Harlem 1 PM Recovery","link":"http://meetings.nyintergroup.org/meetings/harlem-1-pm-recovery?d=any&v=list","time":"0-13:00","region":"East Harlem","lat":40.80202999999999,"long":-73.9442569,"formatted_address":"22 E 119th St, New York, NY 10035, USA"},{"location":"Woodhull Hosp","address":"720 Flushing Avenue","type":"Open, Spanish","geometries":null,"name":"Grupo Unidos Podemos","link":"http://meetings.nyintergroup.org/meetings/grupo-unidos-podemos?d=any&v=list","time":"0-13:00","region":"Metropolitan","lat":40.7004703,"long":-73.94383309999999,"formatted_address":"720 Flushing Ave, Brooklyn, NY 11206, USA"},{"location":"St Paul Lutheran Church","address":"449 Stewart Avenue","type":"Step Meeting, Wheelchair Accessible","geometries":null,"name":"Bethpage New Life","link":"http://meetings.nyintergroup.org/meetings/bethpage-new-life?d=any&v=list","time":"0-15:00","region":"Nassau County","lat":40.7297162,"long":-73.6213437,"formatted_address":"449 Stewart Ave, Garden City, NY 11530, USA"},{"location":"St Stephen's Church","address":"439 East 238th Street","type":"Beginner, Literature","geometries":null,"name":"Primary Purpose","link":"http://meetings.nyintergroup.org/meetings/primary-purpose-2?d=any&v=list","time":"0-15:00","region":"Woodlawn","lat":40.9002169,"long":-73.8636243,"formatted_address":"439 E 238th St, Bronx, NY 10470, USA"},{"location":"St Thomas Aquinas Church","address":"1541 Hendrickson Street","type":"Open, Topic Discussion","geometries":null,"name":"Flatlands","link":"http://meetings.nyintergroup.org/meetings/flatlands?d=any&v=list","time":"0-13:15","region":"Ryder","lat":40.7127837,"long":-74.0059413,"formatted_address":"New York, NY, USA"},{"location":"Graymoor Spiritual Life Center","address":"1320 Route 9 Spur","type":"Beginner, Wheelchair Accessible","geometries":null,"name":"Garrison Have a Desire","link":"http://meetings.nyintergroup.org/meetings/garrison-have-a-desire?d=any&v=list","time":"0-12:00","region":"Putnam and Dutchess Counties","lat":40.7127837,"long":-74.0059413,"formatted_address":"New York, NY, USA"},{"location":"St Vincent Depaul Church Rectory","address":"1500 Depaul Street","type":"Open, Topic Discussion","geometries":null,"name":"Elmont","link":"http://meetings.nyintergroup.org/meetings/elmont?d=any&v=list","time":"0-15:00","region":"Nassau County","lat":40.71009,"long":-73.696395,"formatted_address":"1500 Depaul St, Elmont, NY 11003, USA"},{"location":"Holy Name Church","address":"207 W 96th St","type":"Closed","geometries":null,"name":"Metropolis Men's Meeting","link":"http://meetings.nyintergroup.org/meetings/metropolis-mens-meeting?d=any&v=list","time":"0-12:00","region":"Upper West Side","lat":40.7944661,"long":-73.9706389,"formatted_address":"207 W 96th St, New York, NY 10025, USA"},{"location":"Town Hall Civic Association","address":"172-15 140th Avenue","type":"Open, Topic Discussion, Wheelchair Accessible","geometries":null,"name":"Serenity in Hollis","link":"http://meetings.nyintergroup.org/meetings/serenity-in-hollis?d=any&v=list","time":"0-15:00","region":"Springfield Gardens","lat":40.6711373,"long":-73.76770499999999,"formatted_address":"172-15 140th Ave, Jamaica, NY 11434, USA"},{"location":"Our Lady of Good Counsel Church","address":"230 East 90th Street","type":"Beginner","geometries":null,"name":"Came to Believe","link":"http://meetings.nyintergroup.org/meetings/came-to-believe?d=any&v=list","time":"0-15:30","region":"Yorkville / Carnegie Hill","lat":40.7806798,"long":-73.9509647,"formatted_address":"230 E 90th St, New York, NY 10128, USA"},{"location":"Bethel United Methodist Church","address":"7033 Amboy Road","type":"Beginner","geometries":null,"name":"Remembrance","link":"http://meetings.nyintergroup.org/meetings/remembrance?d=any&v=list","time":"0-16:00","region":"Tottenville","lat":40.5155411,"long":-74.23473489999999,"formatted_address":"7033 Amboy Rd, Staten Island, NY 10307, USA"},{"location":"Centao Carismatico de Catolicos Hispanos","address":"826 East 166th Street","type":"Open, Spanish","geometries":null,"name":"Grupo 28 de Octubre","link":"http://meetings.nyintergroup.org/meetings/grupo-28-de-octubre?d=any&v=list","time":"0-16:00","region":"Boulevard / Hunts Point","lat":40.8256742,"long":-73.8998836,"formatted_address":"826 E 166th St, Bronx, NY 10459, USA"},{"location":"Christopher House","address":"202 West 24th Street","type":"Open, Wheelchair Accessible","geometries":null,"name":"Crossroads","link":"http://meetings.nyintergroup.org/meetings/crossroads-2?d=any&v=list","time":"0-16:00","region":"Chelsea","lat":40.7448224,"long":-73.9958574,"formatted_address":"202 W 24th St, New York, NY 10011, USA"},{"location":"East Midtown Plaza (Community Room H)","address":"319 East 24th Street","type":"Open, Topic Discussion, Wheelchair Accessible","geometries":null,"name":"Sunday Nooners","link":"http://meetings.nyintergroup.org/meetings/sunday-nooners?d=any&v=list","time":"0-12:30","region":"Gramercy Park","lat":40.738438,"long":-73.980164,"formatted_address":"319 E 24th St, New York, NY 10010, USA"},{"location":"Church of St Joseph of Arimathea","address":"2172 Saw Mill River Road","type":"Beginner, Wheelchair Accessible","geometries":null,"name":"White Plains Hope","link":"http://meetings.nyintergroup.org/meetings/white-plains-hope?d=any&v=list","time":"0-16:00","region":"White Plains","lat":41.04354499999999,"long":-73.829881,"formatted_address":"2172 Saw Mill River Rd, White Plains, NY 10607, USA"},{"location":"St John's Lutheran Church","address":"83 Christopher Street","type":"LGBTQ, Open","geometries":null,"name":"New Group","link":"http://meetings.nyintergroup.org/meetings/new-group?d=any&v=list","time":"0-12:30","region":"Greenwich Village","lat":40.7336761,"long":-74.0037703,"formatted_address":"83 Christopher St, New York, NY 10014, USA"},{"location":"LGBT Center","address":"300 Wall Street","type":"Beginner","geometries":null,"name":"Kingston a Vision for You","link":"http://meetings.nyintergroup.org/meetings/kingston-a-vision-for-you?d=any&v=list","time":"0-10:00","region":"Sullivan, Green, and Ulster Counties","lat":40.7127837,"long":-74.0059413,"formatted_address":"New York, NY, USA"},{"location":"Good Shepherd Methodist Church","address":"30-44 Crescent Street","type":"Beginner","geometries":null,"name":"Astoria Safe & Sober (:II)","link":"http://meetings.nyintergroup.org/meetings/astoria-safe-sober-ii?d=any&v=list","time":"0-16:00","region":"Astoria / Steinway","lat":40.7673085,"long":-73.92619069999999,"formatted_address":"30-44 Crescent St, Astoria, NY 11102, USA"},{"location":"Lenox Hill Neighborhood House","address":"331 East 70th Street","type":"Beginner","geometries":null,"name":"Sunday on 70th","link":"http://meetings.nyintergroup.org/meetings/sunday-on-70th?d=any&v=list","time":"0-10:00","region":"Upper East Side","lat":40.7670844,"long":-73.9577554,"formatted_address":"331 E 70th St, New York, NY 10021, USA"},{"location":"H.O.W. Club","address":"552 Port Richmond Avenue","type":"Step Meeting","geometries":null,"name":"Staten Island Foggy Bottoms","link":"http://meetings.nyintergroup.org/meetings/staten-island-foggy-bottoms?d=any&v=list","time":"0-16:00","region":"Port Richmond","lat":40.6295941,"long":-74.1408747,"formatted_address":"552 Port Richmond Ave, Staten Island, NY 10302, USA"},{"location":"The Brooklyn Hospital Center","address":"121 Dekalb Avenue","type":"Big Book, Wheelchair Accessible","geometries":null,"name":"BYOB (Bring Your Own Book)","link":"http://meetings.nyintergroup.org/meetings/byob-bring-your-own-book?d=any&v=list","time":"0-12:30","region":"Brooklyn Heights","lat":40.6907748,"long":-73.977964,"formatted_address":"121 Dekalb Ave, Brooklyn, NY 11201, USA"},{"location":"Project Hospitality","address":"100 Central Avenue","type":"Step Meeting, Wheelchair Accessible","geometries":null,"name":"Eye Opener","link":"http://meetings.nyintergroup.org/meetings/eye-opener?d=any&v=list","time":"0-10:00","region":"St. George / New Brighton Thompkinsville","lat":40.63905159999999,"long":-74.07674829999999,"formatted_address":"100 Central Ave, Staten Island, NY 10301, USA"},{"location":"St John's Inter-Faith Hospital","address":"1545 Atlantic Avenue","type":"Open, Wheelchair Accessible","geometries":null,"name":"Herkimer Sponsors","link":"http://meetings.nyintergroup.org/meetings/herkimer-sponsors?d=any&v=list","time":"0-10:00","region":"St. John's","lat":40.619383,"long":-73.7434562,"formatted_address":"John St, Inwood, NY 11096, USA"},{"location":"Saint Angela Merci Church Rectory","address":"917 Morris Avenue","type":"Beginner, Big Book, Step Meeting, Topic Discussion, Tradition","geometries":null,"name":"South Bronx","link":"http://meetings.nyintergroup.org/meetings/south-bronx?d=any&v=list","time":"0-16:00","region":"Melrose","lat":40.8269716,"long":-73.9179205,"formatted_address":"917 Morris Ave, Bronx, NY 10451, USA"},{"location":"St Matthews Lutheran Church","address":"119-15 135th Avenue","type":"Open","geometries":null,"name":"Cedar Manor","link":"http://meetings.nyintergroup.org/meetings/cedar-manor?d=any&v=list","time":"0-16:00","region":"S. Ozone Park","lat":40.67069350000001,"long":-73.8200528,"formatted_address":"119-15 135th Ave, Jamaica, NY 11420, USA"},{"location":"St Francis Residence","address":"155 West 22nd Street","type":"Step Meeting, Wheelchair Accessible","geometries":null,"name":"Upon Awakening","link":"http://meetings.nyintergroup.org/meetings/upon-awakening?d=any&v=list","time":"0-12:45","region":"Chelsea","lat":40.7431787,"long":-73.9952776,"formatted_address":"155 W 22nd St, New York, NY 10011, USA"},{"location":"Stmargaret Mary Church","address":"9-18 27th Avenue","type":"Closed","geometries":null,"name":"Astoria Workshop","link":"http://meetings.nyintergroup.org/meetings/astoria-workshop?d=any&v=list","time":"0-10:00","region":"Astoria / Steinway","lat":40.7736576,"long":-73.93058839999999,"formatted_address":"9-18 27th Ave, Astoria, NY 11102, USA"},{"location":"Theatre 80","address":"80 Saint Marks Place","type":"Open, Topic Discussion","geometries":null,"name":"Living Now","link":"http://meetings.nyintergroup.org/meetings/living-now?d=any&v=list","time":"0-10:00","region":"East Village","lat":40.727506,"long":-73.98583909999999,"formatted_address":"80 St Marks Pl, New York, NY 10003, USA"},{"location":"St Paul's Lutheran Church","address":"3913 Avenue J","type":"Open","geometries":null,"name":"Old Flatbush","link":"http://meetings.nyintergroup.org/meetings/old-flatbush?d=any&v=list","time":"0-16:00","region":"Vanderveer","lat":40.6420828,"long":-73.95543959999999,"formatted_address":"3913 Vanderveer Pl, Brooklyn, NY 11226, USA"},{"location":"St Phillip's Church","address":"204 West 134th Street","type":"Open, Wheelchair Accessible","geometries":null,"name":"St Nicholas","link":"http://meetings.nyintergroup.org/meetings/st-nicholas?d=any&v=list","time":"0-16:00","region":"West Harlem","lat":40.8146357,"long":-73.9450779,"formatted_address":"204 W 134th St, New York, NY 10030, USA"},{"location":"Rockland County Psychiatric Center","address":"140 Old Orangeburg Road","type":"Open, Topic Discussion, Wheelchair Accessible","geometries":null,"name":"Orangeburgh SOS Group","link":"http://meetings.nyintergroup.org/meetings/orangeburgh-sos-group?d=any&v=list","time":"0-10:15","region":"Rockland County","lat":41.0443745,"long":-73.9685828,"formatted_address":"140 Old Orangeburg Rd, Orangeburg, NY 10962, USA"},{"location":"United Methodist Church","address":"1200 North Avenue","type":"Open, Topic Discussion, Wheelchair Accessible","geometries":null,"name":"New Rochelle Miracle of Life","link":"http://meetings.nyintergroup.org/meetings/new-rochelle-miracle-of-life?d=any&v=list","time":"0-16:00","region":"New Rochelle","lat":40.9428097,"long":-73.7952608,"formatted_address":"1200 North Ave, New Rochelle, NY 10804, USA"},{"location":"Theatre 80","address":"80 Saint Marks Place","type":"Closed","geometries":null,"name":"Living Now","link":"http://meetings.nyintergroup.org/meetings/living-now-2?d=any&v=list","time":"0-10:15","region":"East Village","lat":40.727506,"long":-73.98583909999999,"formatted_address":"80 St Marks Pl, New York, NY 10003, USA"},{"location":"Holy Name School","address":"202 West 97th Street","type":"Open, Spanish, Topic Discussion","geometries":null,"name":"Grupo Camino Real","link":"http://meetings.nyintergroup.org/meetings/grupo-camino-real?d=any&v=list","time":"0-16:30","region":"Upper West Side","lat":40.7946775,"long":-73.97032279999999,"formatted_address":"202 W 97th St, New York, NY 10025, USA"},{"location":"St Peter Claver Roman Catholic Church","address":"29 Claver Place","type":"Beginner","geometries":null,"name":"Brooklyn Central","link":"http://meetings.nyintergroup.org/meetings/brooklyn-central?d=any&v=list","time":"0-16:30","region":"Adelphi Crown Heights","lat":40.6681032,"long":-73.9447994,"formatted_address":"Crown Heights, Brooklyn, NY, USA"},{"location":"St Stanislaus Kostka Church Rectory","address":"189 Driggs Avenue","type":"Open, Topic Discussion","geometries":null,"name":"Jutrzenka (Sunrise)","link":"http://meetings.nyintergroup.org/meetings/jutrzenka-sunrise?d=any&v=list","time":"0-16:30","region":"Greenpoint","lat":40.7227605,"long":-73.94574349999999,"formatted_address":"189 Driggs Ave, Brooklyn, NY 11222, USA"},{"location":"10 South Moger Avenue","address":"10 South Moger Avenue","type":"Open, Spanish","geometries":null,"name":"Mt Kisco Grupo Latino Americano","link":"http://meetings.nyintergroup.org/meetings/mt-kisco-grupo-latino-americano?d=any&v=list","time":"0-17:00","region":"Mt. Kisco","lat":41.2082849,"long":-73.7285519,"formatted_address":"10 S Moger Ave, Mt Kisco, NY 10549, USA"},{"location":"Fellowship of Reconciliation","address":"521 North Broadway","type":"Closed, LGBTQ, Wheelchair Accessible","geometries":null,"name":"Nyack Live and Let Live","link":"http://meetings.nyintergroup.org/meetings/nyack-live-and-let-live?d=any&v=list","time":"0-10:30","region":"Rockland County","lat":41.1089285,"long":-73.9161489,"formatted_address":"521 N Broadway, Nyack, NY 10960, USA"},{"location":"H.O.W. Club","address":"552 Port Richmond Avenue","type":"Open, Topic Discussion","geometries":null,"name":"Grupo Vida a la Vida","link":"http://meetings.nyintergroup.org/meetings/grupo-vida-a-la-vida?d=any&v=list","time":"0-10:30","region":"Port Richmond","lat":40.6295941,"long":-74.1408747,"formatted_address":"552 Port Richmond Ave, Staten Island, NY 10302, USA"},{"location":"2126 2nd Avenue","address":"2126 2nd Avenue","type":"Open, Spanish, Topic Discussion, Wheelchair Accessible","geometries":null,"name":"Grupo Nueva Vida","link":"http://meetings.nyintergroup.org/meetings/grupo-nueva-vida?d=any&v=list","time":"0-17:00","region":"East Harlem","lat":40.7926781,"long":-73.9406285,"formatted_address":"2126 2nd Ave, New York, NY 10029, USA"},{"location":"35 Thayer Street","address":"35 Thayer Street","type":"Open, Spanish, Wheelchair Accessible","geometries":null,"name":"Grupo la Flama Panamericana","link":"http://meetings.nyintergroup.org/meetings/grupo-la-flama-panamericana?d=any&v=list","time":"0-17:00","region":"Washington Heights","lat":40.862594,"long":-73.926186,"formatted_address":"35 Thayer St, New York, NY 10040, USA"},{"location":"Mountainside Hospital","address":"1 Bay Avenue","type":"Atheist / Agnostic, Open, Topic Discussion, Wheelchair Accessible","geometries":null,"name":"Montclair Down to Earth","link":"http://meetings.nyintergroup.org/meetings/montclair-down-to-earth?d=any&v=list","time":"0-10:30","region":"New Jersey","lat":40.8123038,"long":-74.2039704,"formatted_address":"1 Bay Ave, Glen Ridge, NJ 07028, USA"},{"location":"90-46 150th Street","address":"90-46 150th Street","type":"Beginner, Spanish","geometries":null,"name":"Grupo Tradiciones","link":"http://meetings.nyintergroup.org/meetings/grupo-tradiciones?d=any&v=list","time":"0-17:00","region":"Jamaica","lat":40.702409,"long":-73.804873,"formatted_address":"90-46 150th St, Jamaica, NY 11435, USA"},{"location":"Preston High School","address":"2780 Schurz Avenue","type":"Closed, Wheelchair Accessible","geometries":null,"name":"Throggs Neck","link":"http://meetings.nyintergroup.org/meetings/throggs-neck?d=any&v=list","time":"0-10:30","region":"Throggs Neck","lat":40.8136953,"long":-73.8198402,"formatted_address":"2780 Schurz Ave, Bronx, NY 10465, USA"},{"location":"St Sebastian's Parish Center","address":"39-60 57th Street","type":"Step Meeting, Women","geometries":null,"name":"Woodside Women's Meditation Women","link":"http://meetings.nyintergroup.org/meetings/woodside-womens-meditation?d=any&v=list","time":"0-10:30","region":"Woodside","lat":40.7464966,"long":-73.9070265,"formatted_address":"39-60 57th St, Woodside, NY 11377, USA"},{"location":"Covenant Lutheran Church","address":"68-59 60th Lane","type":"Big Book","geometries":null,"name":"Ridgewood","link":"http://meetings.nyintergroup.org/meetings/ridgewood?d=any&v=list","time":"0-17:00","region":"Ridgewood/Glendale","lat":40.7031587,"long":-73.89732219999999,"formatted_address":"68-59 60th Ln, Flushing, NY 11385, USA"},{"location":"Father Hicks Center @ St Claire's Church","address":"151 Lindenwood Road","type":"Step Meeting, Wheelchair Accessible","geometries":null,"name":"Pass It On","link":"http://meetings.nyintergroup.org/meetings/pass-it-on-3?d=any&v=list","time":"0-17:00","region":"Great Kills","lat":40.5466759,"long":-74.15021209999999,"formatted_address":"151 Lindenwood Rd, Staten Island, NY 10308, USA"},{"location":"Yonkers Family YMCA","address":"17 Riverdale Avenue","type":"Men, Open, Topic Discussion, Wheelchair Accessible","geometries":null,"name":"Yonkers Recovery for Men Men","link":"http://meetings.nyintergroup.org/meetings/yonkers-recovery-for-men?d=any&v=list","time":"0-10:30","region":"Yonkers","lat":40.9333648,"long":-73.90027789999999,"formatted_address":"17 Riverdale Ave, Yonkers, NY 10701, USA"},{"location":"Most Holy Redeemer Church","address":"173 East 3rd Street","type":"Closed","geometries":null,"name":"Second Avenue Clean and Dry","link":"http://meetings.nyintergroup.org/meetings/second-avenue-clean-and-dry?d=any&v=list","time":"0-17:00","region":"East Village","lat":40.7234082,"long":-73.98430259999999,"formatted_address":"173 E 3rd St, New York, NY 10009, USA"},{"location":"Saint Johns Episcopal Church","address":"139 Saint Johns Place","type":"Open, Topic Discussion","geometries":null,"name":"Sunday Solution","link":"http://meetings.nyintergroup.org/meetings/sunday-solution?d=any&v=list","time":"0-17:00","region":"Downtown","lat":40.6769518,"long":-73.97484539999999,"formatted_address":"139 St Johns Pl, Brooklyn, NY 11217, USA"},{"location":"74 East 17th Street","address":"74 East 17th Street","type":"Step Meeting","geometries":null,"name":"Old Park Slope Caton","link":"http://meetings.nyintergroup.org/meetings/old-park-slope-caton?d=any&v=list","time":"0-11:00","region":"Flatbush","lat":40.6491978,"long":-73.9642185,"formatted_address":"74 E 17th St, Brooklyn, NY 11226, USA"},{"location":"Second Presbyterian Church","address":"3 West 95th Street","type":"Closed","geometries":null,"name":"Columbus at Five","link":"http://meetings.nyintergroup.org/meetings/columbus-at-five?d=any&v=list","time":"0-17:00","region":"Upper West Side","lat":40.7912092,"long":-73.9653891,"formatted_address":"3 W 95th St, New York, NY 10025, USA"},{"location":"St Brendan's Convent","address":"260 East 207th Street","type":"Beginner","geometries":null,"name":"United We Stand","link":"http://meetings.nyintergroup.org/meetings/united-we-stand?d=any&v=list","time":"0-11:30","region":"Williamsbridge","lat":40.875382,"long":-73.87772199999999,"formatted_address":"260 E 207th St, Bronx, NY 10467, USA"},{"location":"St James Episcopal Church","address":"865 Madison Avenue","type":"Meditation, Open","geometries":null,"name":"Central","link":"http://meetings.nyintergroup.org/meetings/central-4?d=any&v=list","time":"0-17:00","region":"Upper East Side","lat":40.7711264,"long":-73.96535639999999,"formatted_address":"865 Madison Ave, New York, NY 10021, USA"},{"location":"Bronfman Center","address":"7 East 10th Street","type":"Closed, Step Meeting","geometries":null,"name":"Spiritual Workshop","link":"http://meetings.nyintergroup.org/meetings/spiritual-workshop?d=any&v=list","time":"0-11:00","region":"East Village","lat":40.7332774,"long":-73.99463109999999,"formatted_address":"7 E 10th St, New York, NY 10003, USA"},{"location":"St Luke's Episcopal Church","address":"331 New York 100","type":"Step Meeting","geometries":null,"name":"Somers Serendipity","link":"http://meetings.nyintergroup.org/meetings/somers-serendipity-2?d=any&v=list","time":"0-17:00","region":"Somers","lat":41.3270471,"long":-73.6866483,"formatted_address":"331 NY-100, Somers, NY 10589, USA"},{"location":"Clubhouse","address":"367 20th Street","type":"Closed, Men","geometries":null,"name":"Greenwood Men","link":"http://meetings.nyintergroup.org/meetings/greenwood?d=any&v=list","time":"0-11:00","region":"Park Slope","lat":40.6594712,"long":-73.98854419999999,"formatted_address":"367 20th St, Brooklyn, NY 11215, USA"},{"location":"St Mark's Roman Catholic Church","address":"2609 East 19th Street","type":"Big Book","geometries":null,"name":"Big Book on the Bay","link":"http://meetings.nyintergroup.org/meetings/big-book-on-the-bay?d=any&v=list","time":"0-17:00","region":"Sheepshead Bay","lat":40.5881009,"long":-73.94994849999999,"formatted_address":"2609 E 19th St, Brooklyn, NY 11235, USA"},{"location":"St Mary the Virgin Church","address":"133 West 46th Street","type":"Closed","geometries":null,"name":"New But West","link":"http://meetings.nyintergroup.org/meetings/new-but-west?d=any&v=list","time":"0-17:00","region":"Hell's Kitchen","lat":40.7579998,"long":-73.98361530000001,"formatted_address":"133 W 46th St, New York, NY 10036, USA"},{"location":"Forest Hills Volunteer Ambulance Corp","address":"92-29 Metropolitan Avenue","type":"Closed, Wheelchair Accessible","geometries":null,"name":"Welcome to the 11:00am Meeting","link":"http://meetings.nyintergroup.org/meetings/welcome-to-the-1100am-meeting?d=any&v=list","time":"0-11:00","region":"Forest Hills","lat":40.7116309,"long":-73.8570359,"formatted_address":"92-29 Metropolitan Ave, Flushing, NY 11375, USA"},{"location":"St Paul's School","address":"365 Kings Highway","type":"Open, Wheelchair Accessible","geometries":null,"name":"Valley Cottage Grapevine","link":"http://meetings.nyintergroup.org/meetings/valley-cottage-grapevine?d=any&v=list","time":"0-17:00","region":"Rockland County","lat":41.1333407,"long":-73.9482562,"formatted_address":"365 Kings Hwy, Valley Cottage, NY 10989, USA"},{"location":"St Vincent Ferrer Church","address":"1603 Brooklyn Avenue","type":"Open","geometries":null,"name":"Glenwood","link":"http://meetings.nyintergroup.org/meetings/glenwood?d=any&v=list","time":"0-17:00","region":"Vanderveer","lat":40.6419956,"long":-73.95704429999999,"formatted_address":"1603 Vanderveer Pl, Brooklyn, NY 11226, USA"},{"location":"I Can Club","address":"110-54 Farmers Boulevard","type":"Open, Topic Discussion, Wheelchair Accessible","geometries":null,"name":"Hand in Hand Workshop","link":"http://meetings.nyintergroup.org/meetings/hand-in-hand-workshop?d=any&v=list","time":"0-11:00","region":"St. Albans","lat":40.701872,"long":-73.765981,"formatted_address":"110-54 Farmers Blvd, Jamaica, NY 11412, USA"},{"location":"Trinity Presbyterian Church","address":"422 West 57th Street","type":"Beginner","geometries":null,"name":"Clean and Dry","link":"http://meetings.nyintergroup.org/meetings/clean-and-dry?d=any&v=list","time":"0-17:00","region":"Hell's Kitchen","lat":40.7681523,"long":-73.986936,"formatted_address":"422 W 57th St, New York, NY 10019, USA"},{"location":"Christ Church","address":"254 East Putnam Avenue","type":"Open","geometries":null,"name":"Greenwich 12 and 12 Group","link":"http://meetings.nyintergroup.org/meetings/greenwich-12-and-12-group-3?d=any&v=list","time":"0-17:30","region":"Connecticut","lat":41.0360728,"long":-73.6186433,"formatted_address":"254 E Putnam Ave, Greenwich, CT 06830, USA"},{"location":"Cathedral High School","address":"350 East 56th Street","type":"Beginner","geometries":null,"name":"Gotham","link":"http://meetings.nyintergroup.org/meetings/gotham?d=any&v=list","time":"0-17:30","region":"East 50th to 60th Street","lat":40.7618912,"long":-73.9654707,"formatted_address":"E 60th St, New York, NY, USA"},{"location":"Cathedral High School","address":"350 East 56th Street","type":"Step Meeting","geometries":null,"name":"Gotham","link":"http://meetings.nyintergroup.org/meetings/gotham-2?d=any&v=list","time":"0-17:30","region":"East 50th to 60th Street","lat":40.7618912,"long":-73.9654707,"formatted_address":"E 60th St, New York, NY, USA"},{"location":"Sro Building","address":"109 West 129th Street","type":"Step Meeting, Wheelchair Accessible","geometries":null,"name":"Kiss","link":"http://meetings.nyintergroup.org/meetings/kiss?d=any&v=list","time":"0-17:30","region":"West Harlem","lat":40.8107528,"long":-73.9441252,"formatted_address":"109 W 129th St, New York, NY 10027, USA"},{"location":"St Mary's Church","address":"2326 84th Street","type":"Beginner","geometries":null,"name":"New Young Generation","link":"http://meetings.nyintergroup.org/meetings/new-young-generation?d=any&v=list","time":"0-17:30","region":"Bath Beach","lat":40.6010058,"long":-73.9901343,"formatted_address":"2326 84th St, Brooklyn, NY 11214, USA"},{"location":"18 Vesey Street","address":"18 Vesey Street","type":"Big Book","geometries":null,"name":"Gateway","link":"http://meetings.nyintergroup.org/meetings/gateway?d=any&v=list","time":"0-18:00","region":"Bowling Green/City Hall","lat":40.7127837,"long":-74.0059413,"formatted_address":"New York, NY, USA"},{"location":"2044 Seventh Avenue","address":"2044 7th Avenue","type":"Beginner, Wheelchair Accessible","geometries":null,"name":"Living Clean and Sober on 121st Street","link":"http://meetings.nyintergroup.org/meetings/living-clean-and-sober-on-121st-street?d=any&v=list","time":"0-18:00","region":"West Harlem","lat":40.80727220000001,"long":-73.949725,"formatted_address":"2044 7th Ave, New York, NY 10027, USA"},{"location":"42 North Street","address":"42 North Street","type":"Beginner","geometries":null,"name":"Middletown Grupo Tres Legados","link":"http://meetings.nyintergroup.org/meetings/middletown-grupo-tres-legados?d=any&v=list","time":"0-18:00","region":"Orange County","lat":41.4462137,"long":-74.4196931,"formatted_address":"42 North St, Middletown, NY 10940, USA"},{"location":"Boys & Girls Club","address":"123 Jefferson Street","type":"Beginner, Step Meeting","geometries":null,"name":"Hoboken Beginners Sunday Steps","link":"http://meetings.nyintergroup.org/meetings/hoboken-beginners-sunday-steps?d=any&v=list","time":"0-18:00","region":"New Jersey","lat":40.7394281,"long":-74.0378162,"formatted_address":"123 Jefferson St, Hoboken, NJ 07030, USA"},{"location":"Cherry Grove Fire House","address":"181 Bayview Walk","type":"Beginner","geometries":null,"name":"Fire Island Cherry Grove","link":"http://meetings.nyintergroup.org/meetings/fire-island-cherry-grove?d=any&v=list","time":"0-18:00","region":"Suffolk County","lat":40.6599441,"long":-73.0905768,"formatted_address":"181 Bayview Walk, Bay Shore, NY 11706, USA"},{"location":"Church of the Ascension","address":"1 Kingsley Avenue","type":"Big Book, Sign Language","geometries":null,"name":"Victory Group","link":"http://meetings.nyintergroup.org/meetings/victory-group?d=any&v=list","time":"0-18:00","region":"Bull's Head, Willow Brook, Casleton, S.I. Teleport","lat":40.7127837,"long":-74.0059413,"formatted_address":"New York, NY, USA"},{"location":"Church of the Good Shepherd","address":"39 Richard Somers Road","type":"Open, Wheelchair Accessible","geometries":null,"name":"Somers Granite Springs","link":"http://meetings.nyintergroup.org/meetings/somers-granite-springs?d=any&v=list","time":"0-18:00","region":"Somers","lat":41.3128386,"long":-73.7519327,"formatted_address":"39 Richard Somers Rd, Granite Springs, NY 10527, USA"},{"location":"Fire Island Pines Fire House","address":"Fire Island Boulevard","type":"Open, Topic Discussion","geometries":null,"name":"Fire Island Pines Clean and Dry (:I )","link":"http://meetings.nyintergroup.org/meetings/fire-island-pines-clean-and-dry-i?d=any&v=list","time":"0-18:00","region":"Suffolk County","lat":40.6659015,"long":-73.0662009,"formatted_address":"Fire Island Blvd, Sayville, NY 11782, USA"},{"location":"First Reformed Church of College Point","address":"118-01 14th Avenue","type":"Beginner, Literature","geometries":null,"name":"From the Ashes","link":"http://meetings.nyintergroup.org/meetings/from-the-ashes?d=any&v=list","time":"0-18:00","region":"College Point","lat":40.7860977,"long":-73.8493804,"formatted_address":"118-01 14th Ave, Flushing, NY 11356, USA"},{"location":"Grace Lutheran Church","address":"59 Grand Boulevard","type":"Big Book","geometries":null,"name":"Scarsdale Carry This Message","link":"http://meetings.nyintergroup.org/meetings/scarsdale-carry-this-message?d=any&v=list","time":"0-18:00","region":"Scarsdale","lat":40.98321,"long":-73.807487,"formatted_address":"59 Grand Blvd, Scarsdale, NY 10583, USA"},{"location":"Leo Mintzer Community Center","address":"251 Underhill Avenue","type":"Step Meeting","geometries":null,"name":"Harrison Pass It On","link":"http://meetings.nyintergroup.org/meetings/harrison-pass-it-on?d=any&v=list","time":"0-18:00","region":"White Plains","lat":41.0414716,"long":-73.7499335,"formatted_address":"251 Underhill Ave, White Plains, NY 10604, USA"},{"location":"Leo Mintzer Community Center","address":"251 Underhill Avenue","type":"Step Meeting","geometries":null,"name":"White Plains Pass It On","link":"http://meetings.nyintergroup.org/meetings/white-plains-pass-it-on?d=any&v=list","time":"0-18:00","region":"White Plains","lat":41.0414716,"long":-73.7499335,"formatted_address":"251 Underhill Ave, White Plains, NY 10604, USA"},{"location":"Our Saviour's Atonement Church","address":"178 Bennett Avenue","type":"Closed","geometries":null,"name":"What We Are Like Now","link":"http://meetings.nyintergroup.org/meetings/what-we-are-like-now?d=any&v=list","time":"0-18:00","region":"Washington Heights","lat":40.8560587,"long":-73.93446569999999,"formatted_address":"178 Bennett Ave, New York, NY 10040, USA"},{"location":"St Albans Veterans Hosp","address":"1875 Linden Boulevard","type":"Step Meeting, Wheelchair Accessible","geometries":null,"name":"Linden-St Albans","link":"http://meetings.nyintergroup.org/meetings/linden-st-albans?d=any&v=list","time":"0-18:00","region":"St. Albans","lat":40.69226159999999,"long":-73.7652119,"formatted_address":"187-5 Linden Blvd, St. Albans, NY 11412, USA"},{"location":"St Brendan's School","address":"268 East 207th Street","type":"Open, Topic Discussion","geometries":null,"name":"Bainbridge","link":"http://meetings.nyintergroup.org/meetings/bainbridge?d=any&v=list","time":"0-18:00","region":"Williamsbridge","lat":40.8753473,"long":-73.8774532,"formatted_address":"268 E 207th St, Bronx, NY 10467, USA"},{"location":"St Cecilia's Church Rectory","address":"84 Herbert Street","type":"Step Meeting","geometries":null,"name":"Zaufanie (Trust)","link":"http://meetings.nyintergroup.org/meetings/zaufanie-trust?d=any&v=list","time":"0-18:00","region":"Greenpoint","lat":40.7201184,"long":-73.9421711,"formatted_address":"84 Herbert St, Brooklyn, NY 11222, USA"},{"location":"St Claire's School Cafeteria","address":"137-25 Brookville Boulevard","type":"Closed","geometries":null,"name":"Rosedale Sobriety with Love","link":"http://meetings.nyintergroup.org/meetings/rosedale-sobriety-with-love?d=any&v=list","time":"0-18:00","region":"Rosedale","lat":40.6689512,"long":-73.7362539,"formatted_address":"137-25 Brookville Blvd, Rosedale, NY 11422, USA"},{"location":"St Francis of Assisi Education Center","address":"139 West 31st Street","type":"Step Meeting","geometries":null,"name":"Nu Garden","link":"http://meetings.nyintergroup.org/meetings/nu-garden?d=any&v=list","time":"0-18:00","region":"Midtown West Side","lat":40.7487872,"long":-73.9907198,"formatted_address":"139 W 31st St, New York, NY 10001, USA"},{"location":"St John's Lutheran Church","address":"122 Fenimore Road","type":"Beginner","geometries":null,"name":"Mamaroneck Harbor Island (:I)","link":"http://meetings.nyintergroup.org/meetings/mamaroneck-harbor-island-i?d=any&v=list","time":"0-18:00","region":"Mamaroneck","lat":40.9460571,"long":-73.7373623,"formatted_address":"122 Fenimore Rd, Mamaroneck, NY 10543, USA"},{"location":"St Mary's Star of the Sea","address":"19-20 New Haven Avenue","type":"Step Meeting","geometries":null,"name":"Far Rockaway Together","link":"http://meetings.nyintergroup.org/meetings/far-rockaway-together?d=any&v=list","time":"0-18:00","region":"Far Rockaway","lat":40.600749,"long":-73.752735,"formatted_address":"19-20 New Haven Ave, Far Rockaway, NY 11691, USA"},{"location":"The Episcopal Church of the Holy Communion","address":"1055 U.S. 6","type":"Big Book, Wheelchair Accessible","geometries":null,"name":"Mahopac Strictly Alcohol","link":"http://meetings.nyintergroup.org/meetings/mahopac-strictly-alcohol?d=any&v=list","time":"0-18:00","region":"Putnam and Dutchess Counties","lat":41.76781099999999,"long":-73.8923049,"formatted_address":"6 Putnam Rd, Hyde Park, NY 12538, USA"},{"location":"United Methodist Church","address":"Route 111","type":"Beginner","geometries":null,"name":"Islip Live and Let Live","link":"http://meetings.nyintergroup.org/meetings/islip-live-and-let-live?d=any&v=list","time":"0-18:00","region":"Suffolk County","lat":40.7947988,"long":-73.2190955,"formatted_address":"NY-111, New York, USA"},{"location":"Universalist Church","address":"160 Central Park West","type":"Beginner","geometries":null,"name":"Classen Hall (:II)","link":"http://meetings.nyintergroup.org/meetings/classen-hall-ii?d=any&v=list","time":"0-18:00","region":"Upper West Side","lat":40.7787393,"long":-73.97455099999999,"formatted_address":"160 Central Park West, New York, NY 10023, USA"},{"location":"Good Shepherd Faith Church","address":"152 West 66th Street","type":"Step Meeting","geometries":null,"name":"Classen Hall (:I)-Step","link":"http://meetings.nyintergroup.org/meetings/classen-hall-i-step?d=any&v=list","time":"0-18:15","region":"Upper West Side","lat":40.77432290000001,"long":-73.9839099,"formatted_address":"152 W 66th St, New York, NY 10023, USA"},{"location":"St Ignatius Loyola School","address":"48 East 84th Street","type":"Beginner, Wheelchair Accessible","geometries":null,"name":"Metropolitan","link":"http://meetings.nyintergroup.org/meetings/metropolitan?d=any&v=list","time":"0-18:15","region":"Upper East Side","lat":40.7790739,"long":-73.95927689999999,"formatted_address":"48 E 84th St, New York, NY 10028, USA"},{"location":"310 Atlantic Avenue 1st Floor","address":"310 Atlantic Avenue","type":"LGBTQ, Open, Topic Discussion","geometries":null,"name":"All Are Welcome","link":"http://meetings.nyintergroup.org/meetings/all-are-welcome?d=any&v=list","time":"0-18:30","region":"Brooklyn Heights","lat":40.688123,"long":-73.9886385,"formatted_address":"310 Atlantic Ave, Brooklyn, NY 11201, USA"},{"location":"Bethany Methodist Church","address":"112-14 107th Avenue","type":"Beginner","geometries":null,"name":"South Ozone Park","link":"http://meetings.nyintergroup.org/meetings/south-ozone-park?d=any&v=list","time":"0-18:30","region":"Ozone Park","lat":40.682536,"long":-73.828689,"formatted_address":"112-14 107th Ave, Jamaica, NY 11419, USA"},{"location":"Brooklyn Community Pride Center","address":"4 MetroTech Center","type":"Closed, LGBTQ","geometries":null,"name":"Tightrope in the Slope","link":"http://meetings.nyintergroup.org/meetings/tightrope-in-the-slope?d=any&v=list","time":"0-18:30","region":"Brooklyn Heights","lat":40.6934791,"long":-73.9838541,"formatted_address":"4 MetroTech Center, Brooklyn, NY 11201, USA"},{"location":"Bethany Lutheran Church","address":"1037 72nd Street","type":"Step Meeting","geometries":null,"name":"Keep It Fresh","link":"http://meetings.nyintergroup.org/meetings/keep-it-fresh?d=any&v=list","time":"0-18:30","region":"Dyker Heights","lat":40.6256429,"long":-74.0111933,"formatted_address":"1037 72nd St, Brooklyn, NY 11228, USA"},{"location":"First Congregational Church","address":"14 Brookside Road","type":"Big Book, Wheelchair Accessible","geometries":null,"name":"Darien Pass It On","link":"http://meetings.nyintergroup.org/meetings/darien-pass-it-on?d=any&v=list","time":"0-18:30","region":"Connecticut","lat":41.0814388,"long":-73.4646411,"formatted_address":"14 Brookside Rd, Darien, CT 06820, USA"},{"location":"Manhattan Church of the Seventh-Day Adventist","address":"232 West 11th Street","type":"Beginner","geometries":null,"name":"Artists in Recovery (Art)","link":"http://meetings.nyintergroup.org/meetings/artists-in-recovery-art?d=any&v=list","time":"0-18:30","region":"Greenwich Village","lat":40.7360929,"long":-74.0027593,"formatted_address":"232 W 11th St, New York, NY 10014, USA"},{"location":"Reformed Church of the Tarrytowns","address":"42 Broadway","type":"Open","geometries":null,"name":"Tarrytown Pocantico Hills (:I)","link":"http://meetings.nyintergroup.org/meetings/tarrytown-pocantico-hills-i?d=any&v=list","time":"0-18:30","region":"Tarrytown","lat":41.0773803,"long":-73.8574376,"formatted_address":"42 Broadway, Tarrytown, NY 10591, USA"},{"location":"Saint Joseph's Church","address":"141 Ashburton Avenue","type":"Beginner, Wheelchair Accessible","geometries":null,"name":"Yonkers SOS (Sobriety on Sunday)","link":"http://meetings.nyintergroup.org/meetings/yonkers-sos-sobriety-on-sunday?d=any&v=list","time":"0-18:30","region":"Yonkers","lat":40.939748,"long":-73.890692,"formatted_address":"141 Ashburton Ave, Yonkers, NY 10701, USA"},{"location":"St Andrew's Church (in Saltaire)","address":"109 Broadway Road","type":"Open, Wheelchair Accessible","geometries":null,"name":"Fire Island-Serenity by the Sea (:II) at Saltaire","link":"http://meetings.nyintergroup.org/meetings/fire-island-serenity-by-the-sea-ii-at-saltaire?d=any&v=list","time":"0-18:30","region":"Suffolk County","lat":40.7084525,"long":-74.01113749999999,"formatted_address":"109 Broadway, New York, NY 10006, USA"},{"location":"St Augustine Presbyterian Church","address":"838 East 165th Street","type":"Literature, Step Meeting","geometries":null,"name":"Morrisania","link":"http://meetings.nyintergroup.org/meetings/morrisania?d=any&v=list","time":"0-18:30","region":"Morrisania","lat":40.8239585,"long":-73.9001984,"formatted_address":"838 E 165th St, Bronx, NY 10459, USA"},{"location":"St James Episcopal Church","address":"84-07 Broadway","type":"Beginner","geometries":null,"name":"Here's How","link":"http://meetings.nyintergroup.org/meetings/heres-how?d=any&v=list","time":"0-18:30","region":"Elmhurst","lat":40.7400094,"long":-73.8779837,"formatted_address":"84-07 Broadway, Flushing, NY 11373, USA"},{"location":"St Mary's Church","address":"1836 East Main Street","type":"Open, Topic Discussion, Wheelchair Accessible","geometries":null,"name":"Mohegan Lake 12 & 12","link":"http://meetings.nyintergroup.org/meetings/mohegan-lake-12-12-2?d=any&v=list","time":"0-18:30","region":"Mohegan Lake","lat":41.3215942,"long":-73.8543097,"formatted_address":"1836 E Main St, Mohegan Lake, NY 10547, USA"},{"location":"St Mary's Church","address":"1836 East Main Street","type":"Step Meeting, Wheelchair Accessible","geometries":null,"name":"Mohegan Lake 12 & 12","link":"http://meetings.nyintergroup.org/meetings/mohegan-lake-12-12?d=any&v=list","time":"0-18:30","region":"Mohegan Lake","lat":41.3215942,"long":-73.8543097,"formatted_address":"1836 E Main St, Mohegan Lake, NY 10547, USA"},{"location":"St William the Abbot Church","address":"2001 Jackson Avenue","type":"Step Meeting, Wheelchair Accessible","geometries":null,"name":"Seaford Gratitude","link":"http://meetings.nyintergroup.org/meetings/seaford-gratitude?d=any&v=list","time":"0-18:30","region":"Nassau County","lat":40.6735122,"long":-73.486943,"formatted_address":"2001 Jackson Ave, Seaford, NY 11783, USA"},{"location":"Wesley Hills Village Hall","address":"432 New York 306","type":"Closed, Wheelchair Accessible","geometries":null,"name":"Wesley Hills 306","link":"http://meetings.nyintergroup.org/meetings/wesley-hills-306?d=any&v=list","time":"0-18:30","region":"Rockland County","lat":41.1541663,"long":-74.070262,"formatted_address":"432 NY-306, Monsey, NY 10952, USA"},{"location":"Old First Church","address":"125 Main Street","type":"Closed, Literature","geometries":null,"name":"Huntington","link":"http://meetings.nyintergroup.org/meetings/huntington?d=any&v=list","time":"0-18:45","region":"Suffolk County","lat":40.874572,"long":-73.419775,"formatted_address":"125 Main St, Huntington, NY 11743, USA"},{"location":"St James the Just Episcopal Church","address":"858 Roosevelt Street","type":"Beginner, Wheelchair Accessible","geometries":null,"name":"Franklin Square Gift of Serenity","link":"http://meetings.nyintergroup.org/meetings/franklin-square-gift-of-serenity?d=any&v=list","time":"0-18:45","region":"Nassau County","lat":40.709295,"long":-73.672012,"formatted_address":"858 Roosevelt St, Franklin Square, NY 11010, USA"},{"location":"St Michael's Church","address":"41st Avenue","type":"Beginner","geometries":null,"name":"Free Flushing","link":"http://meetings.nyintergroup.org/meetings/free-flushing?d=any&v=list","time":"0-18:45","region":"Flushing","lat":40.76022409999999,"long":-73.8226908,"formatted_address":"41st Ave, Flushing, NY, USA"},{"location":"1 East Post Road","address":"1 East Post Road","type":"Closed, Wheelchair Accessible","geometries":null,"name":"White Plains Felices En Sobriedad","link":"http://meetings.nyintergroup.org/meetings/white-plains-felices-en-sobriedad?d=any&v=list","time":"0-19:00","region":"White Plains","lat":41.0252709,"long":-73.770926,"formatted_address":"1 E Post Rd, White Plains, NY 10601, USA"},{"location":"90-05 175th Street","address":"90-05 175th Street","type":"Open, Spanish","geometries":null,"name":"Grupo 24 Horas de Queens","link":"http://meetings.nyintergroup.org/meetings/grupo-24-horas-de-queens?d=any&v=list","time":"0-19:00","region":"Jamaica","lat":40.70965,"long":-73.78622399999999,"formatted_address":"90-05 175th St, Jamaica, NY 11432, USA"},{"location":"All Saints Ukrainian Orthodox Church","address":"206 East 11th Street","type":"Closed, Literature","geometries":null,"name":"Svoboda","link":"http://meetings.nyintergroup.org/meetings/svoboda?d=any&v=list","time":"0-19:00","region":"East Village","lat":40.7308994,"long":-73.9881087,"formatted_address":"206 E 11th St, New York, NY 10003, USA"},{"location":"All Saints' Episcopal Church","address":"201 Scarborough Road","type":"Open, Wheelchair Accessible","geometries":null,"name":"Ossining Scarborough","link":"http://meetings.nyintergroup.org/meetings/ossining-scarborough?d=any&v=list","time":"0-19:00","region":"Briarcliff","lat":41.1477557,"long":-73.8467233,"formatted_address":"201 Scarborough Rd, Briarcliff Manor, NY 10510, USA"},{"location":"All Souls Presbyterian Church","address":"55 Parkway Drive","type":"Closed, Women","geometries":null,"name":"Port Chester Women's Candlelight Women","link":"http://meetings.nyintergroup.org/meetings/port-chester-womens-candlelight?d=any&v=list","time":"0-19:00","region":"Port Chester","lat":41.0125403,"long":-73.6637351,"formatted_address":"55 Parkway Dr, Port Chester, NY 10573, USA"},{"location":"Briarcliff Congregational Church Parish House","address":"30 South State Road","type":"Closed","geometries":null,"name":"Briarcliff","link":"http://meetings.nyintergroup.org/meetings/briarcliff?d=any&v=list","time":"0-19:00","region":"Briarcliff","lat":41.1442595,"long":-73.8254825,"formatted_address":"30 S State Rd, Briarcliff Manor, NY 10510, USA"},{"location":"Brick Church Parish Hall","address":"220 Brick Church Road","type":"Big Book","geometries":null,"name":"Thruway Men's Group (:II )","link":"http://meetings.nyintergroup.org/meetings/thruway-mens-group-ii?d=any&v=list","time":"0-19:00","region":"Rockland County","lat":41.14015390000001,"long":-74.0635018,"formatted_address":"220 Brick Church Rd, Spring Valley, NY 10977, USA"},{"location":"Christ Church","address":"5030 Henry Hudson Parkway","type":"Step Meeting, Wheelchair Accessible","geometries":null,"name":"Riverdale","link":"http://meetings.nyintergroup.org/meetings/riverdale-2?d=any&v=list","time":"0-19:00","region":"Riverdale","lat":40.8988683,"long":-73.9068961,"formatted_address":"5030 Henry Hudson Pkwy, Bronx, NY 10471, USA"},{"location":"Christ Hava Tamil Koil","address":"75-27 Metropolitan Avenue","type":"Closed","geometries":null,"name":"Starting Over","link":"http://meetings.nyintergroup.org/meetings/starting-over?d=any&v=list","time":"0-19:00","region":"Middle Village","lat":40.7132653,"long":-73.8763115,"formatted_address":"75-27 Metropolitan Ave, Middle Village, NY 11379, USA"},{"location":"Community Church of the Pelhams","address":"Washington Avenue","type":"Closed, Wheelchair Accessible","geometries":null,"name":"Pelham","link":"http://meetings.nyintergroup.org/meetings/pelham-2?d=any&v=list","time":"0-19:00","region":"Pelham","lat":40.9094933,"long":-73.8035732,"formatted_address":"Washington Ave, Pelham, NY 10803, USA"},{"location":"Community Church of the Pelhams","address":"448 Washington Avenue","type":"Big Book, Wheelchair Accessible","geometries":null,"name":"Pelham","link":"http://meetings.nyintergroup.org/meetings/pelham?d=any&v=list","time":"0-19:00","region":"Pelham","lat":40.90979069999999,"long":-73.8058696,"formatted_address":"448 Washington Ave, Pelham, NY 10803, USA"},{"location":"Community Church of the Pelhams","address":"448 Washington Avenue","type":"Closed, Wheelchair Accessible, Young People","geometries":null,"name":"Pelham","link":"http://meetings.nyintergroup.org/meetings/pelham-11?d=any&v=list","time":"0-19:00","region":"Pelham","lat":40.90979069999999,"long":-73.8058696,"formatted_address":"448 Washington Ave, Pelham, NY 10803, USA"},{"location":"East Bay Reform Temple","address":"2569 Merrick Road","type":"LGBTQ, Step Meeting","geometries":null,"name":"Bellmore There Is a Light","link":"http://meetings.nyintergroup.org/meetings/bellmore-there-is-a-light?d=any&v=list","time":"0-19:00","region":"Nassau County","lat":40.6628339,"long":-73.531081,"formatted_address":"2569 Merrick Rd, Bellmore, NY 11710, USA"},{"location":"First Presbyterian Church of Mahopac","address":"New York 6N","type":"Big Book, Wheelchair Accessible","geometries":null,"name":"Mahopac Plug in the Jug","link":"http://meetings.nyintergroup.org/meetings/mahopac-plug-in-the-jug?d=any&v=list","time":"0-19:00","region":"Putnam and Dutchess Counties","lat":41.76781099999999,"long":-73.8923049,"formatted_address":"6 Putnam Rd, Hyde Park, NY 12538, USA"},{"location":"Holy Family Church Rectory","address":"2158 Watson Avenue","type":"Beginner, Big Book, Closed, Literature, Step Meeting, Tradition, Wheelchair Accessible","geometries":null,"name":"A New Person","link":"http://meetings.nyintergroup.org/meetings/a-new-person?d=any&v=list","time":"0-19:00","region":"Soundview","lat":40.82952030000001,"long":-73.8509072,"formatted_address":"2158 Watson Ave, Bronx, NY 10472, USA"},{"location":"Jamaica Hospital","address":"Queens, NY 11418","type":"Open, Wheelchair Accessible","geometries":null,"name":"Today","link":"http://meetings.nyintergroup.org/meetings/today?d=any&v=list","time":"0-19:00","region":"Richmond Hill","lat":40.6958108,"long":-73.8272029,"formatted_address":"Richmond Hill, Queens, NY, USA"},{"location":"Kingsbridge Evangelical Lutheran Church","address":"3130 Bailey Avenue","type":"Beginner","geometries":null,"name":"Bailey Avenue","link":"http://meetings.nyintergroup.org/meetings/bailey-avenue-5?d=any&v=list","time":"0-19:00","region":"Kingsbridge","lat":40.8785714,"long":-73.90164610000001,"formatted_address":"3130 Bailey Ave, Bronx, NY 10463, USA"},{"location":"Mabel Bacon High School of the Future","address":"127 East 22nd Street","type":"Open, Wheelchair Accessible","geometries":null,"name":"Atlantic Group Downtown","link":"http://meetings.nyintergroup.org/meetings/atlantic-group-downtown?d=any&v=list","time":"0-19:00","region":"Gramercy Park","lat":40.7390954,"long":-73.985349,"formatted_address":"127 E 22nd St, New York, NY 10010, USA"},{"location":"Middle Collegiate Church","address":"50 East 7th Street","type":"Big Book","geometries":null,"name":"East Village Group","link":"http://meetings.nyintergroup.org/meetings/east-village-group?d=any&v=list","time":"0-19:00","region":"East Village","lat":40.727553,"long":-73.987661,"formatted_address":"50 E 7th St, New York, NY 10003, USA"},{"location":"North Central Bronx Hospital","address":"3424 Kossuth Avenue","type":"Literature, Step Meeting, Wheelchair Accessible","geometries":null,"name":"A Day at a Time","link":"http://meetings.nyintergroup.org/meetings/a-day-at-a-time?d=any&v=list","time":"0-19:00","region":"Williamsbridge","lat":40.8805358,"long":-73.8811176,"formatted_address":"3424 Kossuth Ave, Bronx, NY 10467, USA"},{"location":"Norwalk United Methodist Church","address":"718 West Avenue","type":"Open, Wheelchair Accessible","geometries":null,"name":"Norwalk Alive Again","link":"http://meetings.nyintergroup.org/meetings/norwalk-alive-again?d=any&v=list","time":"0-19:00","region":"Connecticut","lat":41.1163416,"long":-73.4150976,"formatted_address":"718 West Ave, Norwalk, CT 06850, USA"},{"location":"Old First Reformed Church","address":"729 Carroll Street","type":"Big Book","geometries":null,"name":"Park West","link":"http://meetings.nyintergroup.org/meetings/park-west?d=any&v=list","time":"0-19:00","region":"Park Slope","lat":40.6735548,"long":-73.9765697,"formatted_address":"729 Carroll St, Brooklyn, NY 11215, USA"},{"location":"Olivet Presbyterian Church","address":"97 Myrtle Avenue","type":"Closed, Tradition, Wheelchair Accessible","geometries":null,"name":"Attitude Adjustment","link":"http://meetings.nyintergroup.org/meetings/attitude-adjustment-2?d=any&v=list","time":"0-19:00","region":"West New Brighton","lat":40.6301989,"long":-74.11604249999999,"formatted_address":"97 Myrtle Ave, Staten Island, NY 10310, USA"},{"location":"Our Lady of Fatima School","address":"25-38 80th Street","type":"Closed","geometries":null,"name":"New Leaf","link":"http://meetings.nyintergroup.org/meetings/new-leaf?d=any&v=list","time":"0-19:00","region":"Jackson Heights","lat":40.761565,"long":-73.8886649,"formatted_address":"25-38 80th St, East Elmhurst, NY 11370, USA"},{"location":"Our Lady of Mercy Convent","address":"500 South Oyster Bay Road","type":"Closed","geometries":null,"name":"Hicksville First Things First","link":"http://meetings.nyintergroup.org/meetings/hicksville-first-things-first?d=any&v=list","time":"0-19:00","region":"Nassau County","lat":40.7756099,"long":-73.50277799999999,"formatted_address":"500 S Oyster Bay Rd, Hicksville, NY 11801, USA"},{"location":"Our Lady of Victory Church","address":"163 MacDonough Street","type":"Big Book","geometries":null,"name":"Our Father's House","link":"http://meetings.nyintergroup.org/meetings/our-fathers-house?d=any&v=list","time":"0-19:00","region":"Brovoort","lat":40.7127837,"long":-74.0059413,"formatted_address":"New York, NY, USA"},{"location":"Pilgrim Congregational Church","address":"102-35 89th Avenue","type":"Beginner, Wheelchair Accessible","geometries":null,"name":"Rich Haven Splinter","link":"http://meetings.nyintergroup.org/meetings/rich-haven-splinter?d=any&v=list","time":"0-19:00","region":"Richmond Hill","lat":40.6936088,"long":-73.84304639999999,"formatted_address":"102-35 89th Ave, Jamaica, NY 11418, USA"},{"location":"Sacred Heart Chapel","address":"137 Stage Road","type":"Closed, Men, Wheelchair Accessible","geometries":null,"name":"Monroe Mens Group Men","link":"http://meetings.nyintergroup.org/meetings/monroe-mens-group?d=any&v=list","time":"0-19:00","region":"Orange County","lat":41.3259279,"long":-74.1870288,"formatted_address":"137 Stage Rd, Monroe, NY 10950, USA"},{"location":"Sacred Heart Church","address":"Haviland Drive","type":"Open, Wheelchair Accessible","geometries":null,"name":"Putnam Lake (:II)","link":"http://meetings.nyintergroup.org/meetings/putnam-lake-ii?d=any&v=list","time":"0-19:00","region":"Putnam and Dutchess Counties","lat":41.77002400000001,"long":-73.893267,"formatted_address":"Putnam Rd, Hyde Park, NY 12538, USA"},{"location":"Sacred Heart Elementary/High School","address":"34 Convent Avenue","type":"Step Meeting, Wheelchair Accessible","geometries":null,"name":"Yonkers Sunday Night Candlelight","link":"http://meetings.nyintergroup.org/meetings/yonkers-sunday-night-candlelight?d=any&v=list","time":"0-19:00","region":"Yonkers","lat":40.9494374,"long":-73.8858193,"formatted_address":"34 Convent Ave, Yonkers, NY 10703, USA"},{"location":"Sacred Heart School","address":"216-01 38th Avenue","type":"Open","geometries":null,"name":"North Queens Discussion","link":"http://meetings.nyintergroup.org/meetings/north-queens-discussion-4?d=any&v=list","time":"0-19:00","region":"Bayside","lat":40.7677002,"long":-73.7671718,"formatted_address":"216-01 38th Ave, Bayside, NY 11361, USA"},{"location":"Santa Maria School","address":"1510 Zerega Avenue","type":"Open","geometries":null,"name":"Never Too Young","link":"http://meetings.nyintergroup.org/meetings/never-too-young?d=any&v=list","time":"0-19:00","region":"Parkchester","lat":40.83838799999999,"long":-73.8486379,"formatted_address":"1510 Zerega Ave, Bronx, NY 10462, USA"},{"location":"St Anthony's School","address":"110 Anchor Avenue","type":"Closed, Wheelchair Accessible","geometries":null,"name":"Oceanside One Day at a Time","link":"http://meetings.nyintergroup.org/meetings/oceanside-one-day-at-a-time?d=any&v=list","time":"0-19:00","region":"Nassau County","lat":40.6370856,"long":-73.6430931,"formatted_address":"110 Anchor Ave, Oceanside, NY 11572, USA"},{"location":"St Augustine's School","address":"111 Larchmont Avenue","type":"Open","geometries":null,"name":"Mamaroneck (:I)","link":"http://meetings.nyintergroup.org/meetings/mamaroneck-i?d=any&v=list","time":"0-19:00","region":"Larchmont","lat":40.9270522,"long":-73.7505073,"formatted_address":"111 Larchmont Ave, Larchmont, NY 10538, USA"},{"location":"St Christopher's Church","address":"94 Albany Post Road","type":"Beginner, Wheelchair Accessible","geometries":null,"name":"Montrose Buchanan Step (:I)","link":"http://meetings.nyintergroup.org/meetings/montrose-buchanan-step-i?d=any&v=list","time":"0-19:00","region":"Montrose","lat":41.2568913,"long":-73.93436559999999,"formatted_address":"94 Albany Post Rd, Buchanan, NY 10511, USA"},{"location":"St Christopher's Church","address":"94 Albany Post Road","type":"Step Meeting, Wheelchair Accessible","geometries":null,"name":"Montrose Buchanan Step (:I)","link":"http://meetings.nyintergroup.org/meetings/montrose-buchanan-step-i-2?d=any&v=list","time":"0-19:00","region":"Montrose","lat":41.2568913,"long":-73.93436559999999,"formatted_address":"94 Albany Post Rd, Buchanan, NY 10511, USA"},{"location":"St Columbanus Church","address":"122 Oregon Road","type":"Beginner, Wheelchair Accessible","geometries":null,"name":"Peekskill a Vision for You","link":"http://meetings.nyintergroup.org/meetings/peekskill-a-vision-for-you?d=any&v=list","time":"0-19:00","region":"Peekskill","lat":41.3129526,"long":-73.9039832,"formatted_address":"122 Oregon Rd, Cortlandt, NY 10567, USA"},{"location":"St Francis Di Paulo Catholic Church Auditorium","address":"200 Woodpoint Road","type":"Open, Topic Discussion, Wheelchair Accessible","geometries":null,"name":"Northside","link":"http://meetings.nyintergroup.org/meetings/northside?d=any&v=list","time":"0-19:00","region":"Williamsburg","lat":40.7160318,"long":-73.942275,"formatted_address":"200 Woodpoint Rd, Brooklyn, NY 11211, USA"},{"location":"St Ignatius Church","address":"552 West End Avenue","type":"Beginner","geometries":null,"name":"Renewal West","link":"http://meetings.nyintergroup.org/meetings/renewal-west?d=any&v=list","time":"0-19:00","region":"Upper West Side","lat":40.7892789,"long":-73.97716009999999,"formatted_address":"552 West End Ave, New York, NY 10024, USA"},{"location":"St James Evangelical Lutheran Church","address":"2776 Gerritsen Avenue","type":"Open","geometries":null,"name":"Gerritsen Beach","link":"http://meetings.nyintergroup.org/meetings/gerritsen-beach?d=any&v=list","time":"0-19:00","region":"Homecrest","lat":40.5837273,"long":-73.9561871,"formatted_address":"2776 Homecrest Ave, Brooklyn, NY 11235, USA"},{"location":"St John's Episcopal Church","address":"149-19 Sanford Avenue","type":"Beginner","geometries":null,"name":"Flushing Unity Step","link":"http://meetings.nyintergroup.org/meetings/flushing-unity-step?d=any&v=list","time":"0-19:00","region":"Flushing","lat":40.7605869,"long":-73.8142862,"formatted_address":"149-19 Sanford Ave, Flushing, NY 11355, USA"},{"location":"St John's Episcopal Church","address":"224 Waverly Place","type":"LGBTQ, Open","geometries":null,"name":"Red Door","link":"http://meetings.nyintergroup.org/meetings/red-door?d=any&v=list","time":"0-19:00","region":"Greenwich Village","lat":40.7360517,"long":-74.0020724,"formatted_address":"224 Waverly Pl, New York, NY 10014, USA"},{"location":"St Mark's Church","address":"105 Randall Road","type":"Step Meeting","geometries":null,"name":"Shoreham","link":"http://meetings.nyintergroup.org/meetings/shoreham?d=any&v=list","time":"0-19:00","region":"Suffolk County","lat":40.9353349,"long":-72.8946893,"formatted_address":"105 Randall Rd, Shoreham, NY 11786, USA"},{"location":"St Thomas Church","address":"336 Hudson Street","type":"Closed, Wheelchair Accessible","geometries":null,"name":"Cornwall-on-Hudson Serenity Sunday Night","link":"http://meetings.nyintergroup.org/meetings/cornwall-on-hudson-serenity-sunday-night?d=any&v=list","time":"0-19:00","region":"Orange County","lat":40.7271163,"long":-74.00735039999999,"formatted_address":"336 Hudson St, New York, NY 10013, USA"},{"location":"Three Jewels Community Center","address":"61 4th Avenue","type":"Closed, Meditation","geometries":null,"name":"AA at the Three Jewels-Meditation","link":"http://meetings.nyintergroup.org/meetings/aa-at-the-three-jewels-meditation?d=any&v=list","time":"0-19:00","region":"East Village","lat":40.7307918,"long":-73.9903808,"formatted_address":"61 4th Ave, New York, NY 10003, USA"},{"location":"Unitarian Universalist Fellowship","address":"6 Orchard Street","type":"Step Meeting, Wheelchair Accessible","geometries":null,"name":"Middletown Came to Believe","link":"http://meetings.nyintergroup.org/meetings/middletown-came-to-believe-2?d=any&v=list","time":"0-19:00","region":"Orange County","lat":40.7148203,"long":-73.9919109,"formatted_address":"6 Orchard St, New York, NY 10002, USA"},{"location":"Vfw Hall","address":"65 Lake Road","type":"Big Book, Wheelchair Accessible","geometries":null,"name":"Congers Legacy","link":"http://meetings.nyintergroup.org/meetings/congers-legacy?d=any&v=list","time":"0-19:00","region":"Rockland County","lat":41.121784,"long":-73.935861,"formatted_address":"65 Lake Rd, Valley Cottage, NY 10989, USA"},{"location":"Zion Episcopal Church","address":"243-1 Northern Boulevard","type":"Big Book","geometries":null,"name":"Douglaston Fresh Start","link":"http://meetings.nyintergroup.org/meetings/douglaston-fresh-start-2?d=any&v=list","time":"0-19:15","region":"Little Neck/Douglaston","lat":40.7664367,"long":-73.743669,"formatted_address":"243-01 Northern Blvd, Douglaston, NY 11363, USA"},{"location":"1st Congregational Church","address":"320 Beach 94th Street","type":"Closed","geometries":null,"name":"Believe","link":"http://meetings.nyintergroup.org/meetings/believe?d=any&v=list","time":"0-19:30","region":"Rockaway Park","lat":40.5854777,"long":-73.81639299999999,"formatted_address":"Beach 94th St, Queens, NY 11693, USA"},{"location":"Admiral Farragut American Legion Post 1195","address":"215 Farragut Avenue","type":"Open","geometries":null,"name":"Hastings Lighten-Up","link":"http://meetings.nyintergroup.org/meetings/hastings-lighten-up?d=any&v=list","time":"0-19:30","region":"Hastings-On-Hudson","lat":40.988745,"long":-73.8734899,"formatted_address":"215 Farragut Ave, Hastings-On-Hudson, NY 10706, USA"},{"location":"Atonement Lutheran Church","address":"71 Central Highway","type":"Closed, Wheelchair Accessible","geometries":null,"name":"Stony Point Back to Basics (:I)","link":"http://meetings.nyintergroup.org/meetings/stony-point-back-to-basics-i?d=any&v=list","time":"0-19:30","region":"Rockland County","lat":41.217352,"long":-73.996066,"formatted_address":"71 Central Hwy, Stony Point, NY 10980, USA"},{"location":"Church in the Garden","address":"50 Ascan Avenue","type":"Closed, Literature","geometries":null,"name":"Forest Hills Workshops","link":"http://meetings.nyintergroup.org/meetings/forest-hills-workshops?d=any&v=list","time":"0-19:30","region":"Forest Hills","lat":40.7163762,"long":-73.84151179999999,"formatted_address":"50 Ascan Ave, Forest Hills, NY 11375, USA"},{"location":"Fellowship Hall","address":"2021 Albany Post Road","type":"Beginner, Wheelchair Accessible","geometries":null,"name":"Croton-on-Hudson Big Book Basics","link":"http://meetings.nyintergroup.org/meetings/croton-on-hudson-big-book-basics-2?d=any&v=list","time":"0-19:30","region":"Croton-On-Hudson","lat":41.2325077,"long":-73.9125813,"formatted_address":"2021 Albany Post Rd, Croton-On-Hudson, NY 10520, USA"},{"location":"First Presbyterian Church","address":"124 Henry Street","type":"Closed","geometries":null,"name":"Sidney Place","link":"http://meetings.nyintergroup.org/meetings/sidney-place?d=any&v=list","time":"0-19:30","region":"Brooklyn Heights","lat":40.6970837,"long":-73.9936828,"formatted_address":"124 Henry St, Brooklyn, NY 11201, USA"},{"location":"Garden City Community Church","address":"245 Stewart Avenue","type":"Closed, Topic Discussion","geometries":null,"name":"Garden City","link":"http://meetings.nyintergroup.org/meetings/garden-city-3?d=any&v=list","time":"0-19:30","region":"Nassau County","lat":40.7253126,"long":-73.65733790000002,"formatted_address":"245 Stewart Ave, Garden City, NY 11530, USA"},{"location":"Grace House","address":"218 West 108th Street","type":"Open, Spanish, Wheelchair Accessible","geometries":null,"name":"Grupo Dulces 24","link":"http://meetings.nyintergroup.org/meetings/grupo-dulces-24?d=any&v=list","time":"0-19:30","region":"Upper West Side","lat":40.8020319,"long":-73.9659862,"formatted_address":"218 W 108th St, New York, NY 10025, USA"},{"location":"Grace Van Vorst Church","address":"39 Erie Street","type":"Open, Topic Discussion","geometries":null,"name":"Jersey City Down Town Sunday Night","link":"http://meetings.nyintergroup.org/meetings/jersey-city-down-town-sunday-night?d=any&v=list","time":"0-19:30","region":"New Jersey","lat":40.7228731,"long":-74.0444904,"formatted_address":"39 Erie St, Jersey City, NJ 07302, USA"},{"location":"Harrison Senior Center","address":"216 Halstead Avenue","type":"Step Meeting, Wheelchair Accessible","geometries":null,"name":"Rye Harrison (:v)","link":"http://meetings.nyintergroup.org/meetings/rye-harrison-v?d=any&v=list","time":"0-19:30","region":"Harrison","lat":40.9674241,"long":-73.71528169999999,"formatted_address":"216 Halstead Ave, Harrison, NY 10528, USA"},{"location":"Holy Trinity Church","address":"20 Cumming Street","type":"Closed, LGBTQ","geometries":null,"name":"Happy Destiny","link":"http://meetings.nyintergroup.org/meetings/happy-destiny?d=any&v=list","time":"0-19:30","region":"Inwood","lat":40.8666437,"long":-73.9268712,"formatted_address":"20 Cumming St, New York, NY 10034, USA"},{"location":"House of Hope Presbyterian Church","address":"84-54 248th Street","type":"Closed","geometries":null,"name":"Bellerose Daily Reprieve","link":"http://meetings.nyintergroup.org/meetings/bellerose-daily-reprieve?d=any&v=list","time":"0-19:30","region":"Bellrose","lat":40.7334572,"long":-73.7187036,"formatted_address":"84-54 248th St, Bellerose, NY 11426, USA"},